~Version Information
 VERS.                 2.0:   CWLS Log ASCII Standard - VERSION 2.0
 WRAP.                  NO:   One line per depth step
~Well Information Block
#MNEM.UNIT         DATA            DESCRIPTION OF MNEMONIC
#---------    -------------   -------------------------------
 STRT.M            1057.200:   START DEPTH
 STOP.M            2380.000:   STOP DEPTH
 STEP.M               0.100:   STEP DEPTH
 NULL.           -99999.000:   NULL VALUE
 COMP.                    :   COMPANY
 WELL.          Zakiganj-1:   Well
 FLD .                    :   FIELD
 LOC .                    :   Location
 CNTY.                    :   County
 STAT.                    :   State
 CTRY.                    :   Country
 SRVC.        CNPC Logging:   Service Company
 DATE.          21/04/2021:   Date
 API .                    :   API Number
~Curve Information Block
#MNEM.UNIT      API CODE             CURVE DESCRIPTION
#---------    -------------   ------------------------------
 DEPT.M                   :     DEPTH
 CAL.in                   :     Density caliper
 CGR .API                 :     Gamma ray minus uranium
 CNL .%                   :     Compensated neutron
 DEN .g/cm3               :     Bulk Density 
 AC .us/ft                :     Acoustic
 GR  .API                 :     Gamma Ray
 K   .%                   :     Potassium
 PE  .b/e                 :     Photoelectric factor
 PERM.mD                  :     Permeability
 POR .%                   :     Porosity
 PORF.%                   :     Porosity of water
 PORW.%                   :     Porosity of flush zone
 RAL1.ohmm                :     Array laterlog
 RAL2.ohmm                :     Array laterlog
 RAL3.ohmm                :     Array laterlog
 RAL4.ohmm                :     Array laterlog
 RAL5.ohmm                :     Array laterlog
 RTHK.none                :     Ratio of TH and K
 RTHU.none                :     Ratio of TH and U
 RUK .none                :     Ratio of U and K
 SGR .API                 :     Spectrum Gamma Ray
 SH  .%                   :     Shale content
 SP  .mV                  :     Spontaneous potential
 SW  .%                   :     Water saturation
 SWIR.%                   :     Irreducible water Saturation
 TH  .ppm                 :     Thorium
 U   .ppm                 :     Uranium
~A DEPT     CAL          CGR          CNL          DEN          AC           GR            K           PE         PERM          POR         PORF         PORW         RAL1         RAL2         RAL3     RAL4         RAL5         RTHK         RTHU          RUK          SGR           SH           SP           SW         SWIR           TH            U  
# ...
   1234.000      6.000     98.758     42.560      0.000    111.786    101.992      3.815      0.003      0.010      0.010      0.010      0.010      1.152      2.298      2.892      3.548      3.954      2.832     95.074      0.030     99.545     33.750     45.977    100.000    100.000     10.803      0.115
   1234.100      6.000     99.698     44.294      0.000    111.848    104.840      3.809      0.002      0.010      0.010      0.010      0.010      1.161      2.314      2.859      3.491      3.965      2.855    113.926      0.025    100.328     39.285     46.341    100.000    100.000     10.875      0.096
   1234.200      6.000    100.545     45.716      0.000    111.916    109.792      3.801      0.002      0.010      0.010      0.010      0.010      1.162      2.322      2.858      3.488      3.987      2.885    128.097      0.023    101.034     47.920     46.725    100.000    100.000     10.965      0.086
   1234.300      6.000    101.193     45.769      0.000    111.976    112.930      3.790      0.002      0.010      0.010      0.010      0.010      1.161      2.331      2.866      3.488      4.022      2.919    135.854      0.022    101.585     52.246     47.101    100.000    100.000     11.065      0.081
   1234.400      6.000    101.441     44.354      0.000    112.028    111.401      3.776      0.002      0.010      0.010      0.010      0.010      1.164      2.335      2.903      3.527      4.086      2.959    131.574      0.022    101.820     47.266     47.449    100.000    100.000     11.173      0.085
   1234.500      6.000    101.434     42.346      0.000    112.041    107.017      3.759      0.002      0.010      0.010      0.010      0.010      1.169      2.339      2.951      3.591      4.192      3.002    118.273      0.026    101.953     39.514     47.757    100.000    100.000     11.283      0.096
   1234.600      6.000    101.406     40.642      0.000    112.046    104.382      3.742      0.002      0.010      0.010      0.010      0.010      1.176      2.361      3.009      3.678      4.329      3.044    103.053      0.030    102.126     36.679     48.027    100.000    100.000     11.389      0.112
   1234.700      6.000    101.469     39.647      0.000    112.041    105.614      3.725      0.002      0.010      0.010      0.010      0.010      1.190      2.401      3.074      3.774      4.463      3.083     88.421      0.035    102.446     39.491     48.268    100.000    100.000     11.486      0.131
   1234.800      6.000    101.722     39.497      0.000    112.029    107.467      3.712      0.002      0.010      0.010      0.010      0.010      1.213      2.426      3.117      3.842      4.557      3.114     77.826      0.040    102.935     42.169     48.491    100.000    100.000     11.557      0.150
   1234.900      6.000    102.020     40.099      0.000    112.026    107.550      3.701      0.002      0.010      0.010      0.010      0.010      1.222      2.410      3.105      3.827      4.560      3.137     69.371      0.045    103.432     41.222     48.702    100.000    100.000     11.609      0.168
   1235.000      6.000    102.317     41.005      0.000    112.032    104.922      3.693      0.003      0.010      0.010      0.010      0.010      1.208      2.346      3.016      3.703      4.447      3.149     63.555      0.050    103.856     36.701     48.902    100.000    100.000     11.629      0.183
   1235.100      6.000    102.312     41.605      0.000    112.059    103.178      3.688      0.003      0.010      0.010      0.010      0.010      1.185      2.298      2.912      3.568      4.284      3.148     58.822      0.054    103.854     34.904     49.084    100.000    100.000     11.608      0.198
   1235.200      6.000    102.071     41.745      0.000    112.105    104.045      3.683      0.003      0.010      0.010      0.010      0.010      1.167      2.269      2.829      3.450      4.208      3.139     54.309      0.058    103.576     37.343     49.241    100.000    100.000     11.561      0.213
   1235.300      6.000    101.461     41.897      0.000    112.169    107.741      3.677      0.003      0.010      0.010      0.010      0.010      1.157      2.267      2.804      3.418      4.147      3.122     49.713      0.063    102.903     43.929     49.369    100.000    100.000     11.480      0.231
   1235.400      6.000    100.720     42.490      0.000    112.225    111.019      3.670      0.003      0.010      0.010      0.010      0.010      1.141      2.276      2.801      3.400      4.137      3.097     44.990      0.069    102.303     49.676     49.469    100.000    100.000     11.367      0.254
   1235.500      6.000     99.936     43.335      0.000    112.282    113.450      3.662      0.003      0.010      0.010      0.010      0.010      1.141      2.287      2.840      3.443      4.145      3.069     40.418      0.076    101.775     54.247     49.544    100.000    100.000     11.238      0.279
   1235.600      6.000     99.130     43.883      0.000    112.338    115.089      3.653      0.003      0.010      0.010      0.010      0.010      1.143      2.322      2.882      3.496      4.204      3.036     36.246      0.084    101.367     56.914     49.597    100.000    100.000     11.090      0.307
   1235.700      6.000     98.384     43.918      0.000    112.377    114.536      3.645      0.003      0.010      0.010      0.010      0.010      1.153      2.348      2.920      3.540      4.244      2.999     32.991      0.091    101.024     53.938     49.625    100.000    100.000     10.931      0.333
   1235.800      6.000     97.643     43.895      0.000    112.390    110.394      3.638      0.003      0.010      0.010      0.010      0.010      1.167      2.367      2.945      3.580      4.287      2.960     30.305      0.098    100.615     44.376     49.622    100.000    100.000     10.771      0.356
   1235.900      6.000     96.880     44.299      0.000    112.379    104.131      3.636      0.003      0.010      0.010      0.010      0.010      1.174      2.380      2.970      3.614      4.324      2.918     28.405      0.103    100.026     34.166     49.585    100.000    100.000     10.610      0.374
   1236.000      6.000     96.122     45.000      0.000    112.345     98.992      3.639      0.003      0.010      0.010      0.010      0.010      1.174      2.352      2.963      3.609      4.302      2.876     27.128      0.106     99.189     28.249     49.513    100.000    100.000     10.464      0.386
   1236.100      6.000     95.472     45.446      0.000    112.305     97.685      3.646      0.003      0.010      0.010      0.010      0.010      1.164      2.307      2.928      3.546      4.212      2.834     26.074      0.109     98.384     27.990     49.415    100.000    100.000     10.332      0.396
   1236.200      6.000     95.059     45.337      0.000    112.258    100.622      3.658      0.003      0.010      0.010      0.010      0.010      1.153      2.261      2.900      3.502      4.128      2.794     25.195      0.111     97.775     32.518     49.307    100.000    100.000     10.220      0.406
   1236.300      6.000     95.213     45.055      0.000    112.226    103.740      3.672      0.003      0.010      0.010      0.010      0.010      1.156      2.261      2.902      3.501      4.115      2.762     24.136      0.115     97.967     36.649     49.209    100.000    100.000     10.143      0.421
   1236.400      6.000     95.556     45.104      0.000    112.212    105.196      3.686      0.003      0.010      0.010      0.010      0.010      1.153      2.285      2.905      3.503      4.091      2.736     22.915      0.120     98.473     38.292     49.137    100.000    100.000     10.087      0.441
   1236.500      6.000     96.031     45.381      0.000    112.217    105.308      3.699      0.003      0.010      0.010      0.010      0.010      1.150      2.271      2.857      3.399      4.009      2.720     21.426      0.127     99.259     38.289     49.108    100.000    100.000     10.062      0.470
