~Version Information
 VERS.                 2.0:   CWLS Log ASCII Standard - VERSION 2.0
 WRAP.                  NO:   One line per depth step
~Well Information Block
#MNEM.UNIT         DATA            DESCRIPTION OF MNEMONIC
#---------    -------------   -------------------------------
 STRT.M            1057.200:   START DEPTH
 STOP.M            2380.000:   STOP DEPTH
 STEP.M               0.100:   STEP DEPTH
 NULL.           -99999.000:   NULL VALUE
 COMP.                    :   COMPANY
 WELL.          Zakiganj-1:   Well
 FLD .                    :   FIELD
 LOC .                    :   Location
 CNTY.                    :   County
 STAT.                    :   State
 CTRY.                    :   Country
 SRVC.        CNPC Logging:   Service Company
 DATE.          21/04/2021:   Date
 API .                    :   API Number
~Curve Information Block
#MNEM.UNIT      API CODE             CURVE DESCRIPTION
#---------    -------------   ------------------------------
 DEPT.M                   :     DEPTH
 CAL.in                   :     Density caliper
 CGR .API                 :     Gamma ray minus uranium
 CNL .%                   :     Compensated neutron
 DEN .g/cm3               :     Bulk Density 
 AC .us/ft                :     Acoustic
 GR  .API                 :     Gamma Ray
 K   .%                   :     Potassium
 PE  .b/e                 :     Photoelectric factor
 PERM.mD                  :     Permeability
 POR .%                   :     Porosity
 PORF.%                   :     Porosity of water
 PORW.%                   :     Porosity of flush zone
 RAL1.ohmm                :     Array laterlog
 RAL2.ohmm                :     Array laterlog
 RAL3.ohmm                :     Array laterlog
 RAL4.ohmm                :     Array laterlog
 RAL5.ohmm                :     Array laterlog
 RTHK.none                :     Ratio of TH and K
 RTHU.none                :     Ratio of TH and U
 RUK .none                :     Ratio of U and K
 SGR .API                 :     Spectrum Gamma Ray
 SH  .%                   :     Shale content
 SP  .mV                  :     Spontaneous potential
 SW  .%                   :     Water saturation
 SWIR.%                   :     Irreducible water Saturation
 TH  .ppm                 :     Thorium
 U   .ppm                 :     Uranium
~A DEPT     CAL          CGR          CNL          DEN          AC           GR            K           PE         PERM          POR         PORF         PORW         RAL1         RAL2         RAL3     RAL4         RAL5         RTHK         RTHU          RUK          SGR           SH           SP           SW         SWIR           TH            U  
# ...
   1847.600     17.892    117.671     36.252      1.989     87.618    123.959      4.115     20.896      0.010      0.010      0.010      0.010      1.528      3.766      4.946      5.377      5.598      3.430     50.547      0.068    119.610     62.364     22.183    100.000    100.000     14.113      0.280
   1847.700     17.850    116.870     36.052      1.959     87.661    125.029      4.104     21.201      0.010      0.010      0.010      0.010      1.510      3.723      4.896      5.344      5.575      3.415     47.533      0.072    118.916     65.791     22.200    100.000    100.000     14.017      0.296
   1847.800     17.600    116.151     35.989      1.968     87.728    126.885      4.096     21.656      0.010      0.010      0.010      0.010      1.494      3.686      4.826      5.285      5.518      3.402     44.415      0.077    118.346     72.400     22.222    100.000    100.000     13.935      0.314
   1847.900     17.386    115.765     36.138      2.001     87.804    129.196      4.098     22.460      0.010      0.010      0.010      0.010      1.484      3.665      4.768      5.246      5.478      3.388     41.424      0.082    118.162     79.643     22.243    100.000    100.000     13.884      0.336
   1848.000     17.385    115.829     36.474      2.025     87.878    130.573      4.105     23.534      0.010      0.010      0.010      0.010      1.486      3.653      4.743      5.244      5.469      3.374     38.959      0.087    118.480     83.127     22.259    100.000    100.000     13.847      0.356
   1848.100     17.587    116.243     37.057      2.025     87.949    130.488      4.116     24.602      0.010      0.010      0.010      0.010      1.491      3.639      4.736      5.255      5.485      3.357     36.989      0.091    119.178     81.505     22.270    100.000    100.000     13.820      0.374
   1848.200     17.664    117.058     37.846      2.008     87.949    129.026      4.133     25.297      0.010      0.010      0.010      0.010      1.490      3.603      4.716      5.240      5.487      3.337     36.332      0.092    120.204     75.311     22.276    100.000    100.000     13.794      0.380
   1848.300     17.377    117.666     38.443      1.984     87.870    126.975      4.151     25.791      0.010      0.010      0.010      0.010      1.478      3.544      4.672      5.180      5.450      3.315     36.766      0.090    120.883     69.120     22.280    100.000    100.000     13.760      0.374
   1848.400     16.801    118.051     38.277      1.966     87.713    125.685      4.167     25.925      0.010      0.010      0.010      0.010      1.457      3.471      4.619      5.121      5.403      3.292     38.161      0.086    121.210     66.238     22.283    100.000    100.000     13.717      0.360
   1848.500     16.242    117.660     37.277      1.968     87.519    125.776      4.179     25.668      0.010      0.010      0.010      0.010      1.430      3.417      4.591      5.108      5.383      3.268     41.610      0.079    120.454     67.711     22.284    100.000    100.000     13.659      0.329
   1848.600     15.983    116.941     36.005      2.002     87.289    127.474      4.188     25.126      0.010      0.010      0.010      0.010      1.401      3.376      4.564      5.107      5.379      3.246     46.746      0.070    119.234     74.403     22.284    100.000    100.000     13.595      0.294
   1848.700     15.924    116.036     35.142      2.065     87.020    129.253      4.194     24.332      0.010      0.010      0.010      0.010      1.372      3.338      4.520      5.084      5.353      3.225     53.339      0.061    117.748     78.559     22.285    100.000    100.000     13.527      0.255
   1848.800     15.761    115.469     34.952      2.135     86.702    128.610      4.197     23.570      0.010      0.010      0.010      0.010      1.354      3.316      4.463      5.040      5.305      3.207     62.849      0.052    116.707     73.880     22.290    100.000    100.000     13.459      0.217
   1848.900     15.535    115.341     35.315      2.190     86.438    125.375      4.199     22.944      0.010      0.010      0.010      0.010      1.357      3.312      4.429      5.000      5.274      3.190     73.663      0.044    116.330     62.415     22.300    100.000    100.000     13.396      0.184
   1849.000     15.628    115.518     36.023      2.224     86.227    121.378      4.201     22.459      0.010      0.010      0.010      0.010      1.373      3.321      4.438      5.001      5.296      3.175     85.208      0.037    116.425     52.810     22.313    100.000    100.000     13.335      0.157
   1849.100     16.239    115.772     36.799      2.233     86.078    119.647      4.202     22.209      0.010      0.010      0.010      0.010      1.374      3.317      4.466      5.042      5.362      3.160     95.404      0.033    116.722     51.038     22.321    100.000    100.000     13.281      0.140
   1849.200     17.163    115.721     37.374      2.198     85.976    120.706      4.203     22.428      0.010      0.010      0.010      0.010      1.349      3.285      4.501      5.114      5.438      3.147    102.863      0.031    116.707     54.526     22.312    100.000    100.000     13.229      0.129
   1849.300     17.987    115.420     37.823      2.101     85.922    121.531      4.203     22.654      0.010      0.010      0.010      0.010      1.304      3.224      4.519      5.175      5.489      3.135    108.222      0.029    116.428     54.934     22.274    100.000    100.000     13.177      0.122
   1849.400     18.559    114.718     38.516      1.972     86.037    119.738      4.199     22.730      0.010      0.010      0.010      0.010      1.256      3.157      4.496      5.182      5.472      3.126    111.205      0.028    115.651     48.969     22.201    100.000    100.000     13.124      0.118
   1849.500     18.827    113.992     39.641      1.888     86.157    116.358      4.192     22.790      0.010      0.010      0.010      0.010      1.223      3.103      4.452      5.166      5.435      3.118    113.828      0.027    114.844     41.794     22.100    100.000    100.000     13.070      0.115
   1849.600     18.881    113.285     40.904      1.904     86.284    114.253      4.184     23.068      0.010      0.010      0.010      0.010      1.213      3.088      4.440      5.175      5.461      3.111    115.932      0.027    114.059     39.265     21.989    100.000    100.000     13.015      0.112
   1849.700     18.813    112.903     41.817      2.007     86.366    115.240      4.173     23.439      0.010      0.010      0.010      0.010      1.226      3.097      4.471      5.229      5.551      3.106    115.526      0.027    113.669     42.802     21.899    100.000    100.000     12.961      0.112
   1849.800     18.751    112.670     42.238      2.125     86.450    117.979      4.164     23.664      0.010      0.010      0.010      0.010      1.240      3.112      4.510      5.295      5.636      3.102    111.327      0.028    113.444     48.553     21.854    100.000    100.000     12.914      0.116
   1849.900     18.834    112.521     42.315      2.200     86.537    119.955      4.155     23.478      0.010      0.010      0.010      0.010      1.240      3.108      4.518      5.322      5.676      3.098    104.132      0.030    113.320     52.161     21.867    100.000    100.000     12.871      0.124
   1850.000     19.074    112.233     42.121      2.225     86.508    119.780      4.150     22.504      0.010      0.010      0.010      0.010      1.225      3.077      4.494      5.307      5.646      3.095     92.733      0.034    113.115     49.977     21.931    100.000    100.000     12.844      0.139
   1850.100     19.294    112.025     41.483      2.219     86.484    117.447      4.148     21.851      0.010      0.010      0.010      0.010      1.198      3.027      4.428      5.238      5.552      3.092     81.842      0.038    113.068     44.212     22.022    100.000    100.000     12.826      0.158
