~Version Information
 VERS.                 2.0:   CWLS Log ASCII Standard - VERSION 2.0
 WRAP.                  NO:   One line per depth step
~Well Information Block
#MNEM.UNIT         DATA            DESCRIPTION OF MNEMONIC
#---------    -------------   -------------------------------
 STRT.M            1057.200:   START DEPTH
 STOP.M            2380.000:   STOP DEPTH
 STEP.M               0.100:   STEP DEPTH
 NULL.           -99999.000:   NULL VALUE
 COMP.                    :   COMPANY
 WELL.          Zakiganj-1:   Well
 FLD .                    :   FIELD
 LOC .                    :   Location
 CNTY.                    :   County
 STAT.                    :   State
 CTRY.                    :   Country
 SRVC.        CNPC Logging:   Service Company
 DATE.          21/04/2021:   Date
 API .                    :   API Number
~Curve Information Block
#MNEM.UNIT      API CODE             CURVE DESCRIPTION
#---------    -------------   ------------------------------
 DEPT.M                   :     DEPTH
 CAL.in                   :     Density caliper
 CGR .API                 :     Gamma ray minus uranium
 CNL .%                   :     Compensated neutron
 DEN .g/cm3               :     Bulk Density 
 AC .us/ft                :     Acoustic
 GR  .API                 :     Gamma Ray
 K   .%                   :     Potassium
 PE  .b/e                 :     Photoelectric factor
 PERM.mD                  :     Permeability
 POR .%                   :     Porosity
 PORF.%                   :     Porosity of water
 PORW.%                   :     Porosity of flush zone
 RAL1.ohmm                :     Array laterlog
 RAL2.ohmm                :     Array laterlog
 RAL3.ohmm                :     Array laterlog
 RAL4.ohmm                :     Array laterlog
 RAL5.ohmm                :     Array laterlog
 RTHK.none                :     Ratio of TH and K
 RTHU.none                :     Ratio of TH and U
 RUK .none                :     Ratio of U and K
 SGR .API                 :     Spectrum Gamma Ray
 SH  .%                   :     Shale content
 SP  .mV                  :     Spontaneous potential
 SW  .%                   :     Water saturation
 SWIR.%                   :     Irreducible water Saturation
 TH  .ppm                 :     Thorium
 U   .ppm                 :     Uranium
~A DEPT     CAL          CGR          CNL          DEN          AC           GR            K           PE         PERM          POR         PORF         PORW         RAL1         RAL2         RAL3     RAL4         RAL5         RTHK         RTHU          RUK          SGR           SH           SP           SW         SWIR           TH            U  
# ...
   1145.600      6.000     63.898     32.389      2.252    110.650     73.862      3.199      7.455     79.832     22.774     21.932     18.864      1.094      2.369      3.777      6.322     10.502      2.012     26.158      0.077     65.473     18.299     45.980     82.831     15.529      6.435      0.247
   1145.700      6.000     63.164     32.431      2.237    110.054     73.927      3.208      7.075     76.496     22.554     21.785     18.960      1.099      2.384      3.757      6.342     10.535      2.000     27.470      0.073     64.991     18.048     46.137     84.065     15.784      6.416      0.234
   1145.800      6.000     62.669     32.815      2.224    109.374     72.839      3.218      6.659     79.181     22.732     21.876     18.764      1.105      2.386      3.742      6.310     10.560      1.990     27.929      0.071     64.710     16.641     46.281     82.546     15.245      6.405      0.229
   1145.900      6.000     62.872     33.335      2.214    108.612     69.577      3.231      6.354     89.810     23.392     22.251     18.215      1.108      2.414      3.718      6.293     10.561      1.984     28.258      0.070     64.915     13.872     46.414     77.868     13.798      6.410      0.227
   1146.000      6.000     63.441     33.682      2.208    107.808     66.025      3.246      6.247     98.440     23.885     22.486     17.663      1.100      2.405      3.722      6.206     10.747      1.978     28.895      0.069     65.381     11.473     46.541     73.951     12.685      6.422      0.222
   1146.100      6.000     64.440     33.685      2.209    106.927     63.497      3.264      6.305     99.405     23.938     22.509     17.596      1.114      2.380      3.747      6.193     10.625      1.973     30.011      0.066     66.156     10.127     46.669     73.507     12.312      6.442      0.215
   1146.200      6.000     65.537     33.479      2.214    105.967     62.934      3.286      6.527     89.634     23.382     22.243     18.215      1.104      2.370      3.725      6.099     10.527      1.967     31.733      0.062     67.021     10.205     46.802     77.904     12.958      6.463      0.204
   1146.300      6.000     66.485     33.369      2.215    104.758     65.139      3.307      6.842     70.221     22.120     21.557     19.446      1.091      2.353      3.699      5.959     10.416      1.959     33.315      0.059     67.790     11.862     46.944     87.912     14.997      6.481      0.195
   1146.400      6.000     67.196     33.494      2.207    103.427     68.077      3.329      7.174     50.647     20.537     20.537     20.537      1.069      2.372      3.630      5.809     10.344      1.950     34.596      0.056     68.404     14.200     47.095    100.000     18.138      6.492      0.188
   1146.500      6.000     67.445     33.725      2.196    101.971     72.133      3.346      7.454     31.673     18.459     18.459     18.459      1.058      2.347      3.539      5.700     10.116      1.938     34.202      0.057     68.690     17.577     47.256    100.000     38.860      6.484      0.190
   1146.600      6.000     67.450     33.843      2.191    100.161     76.046      3.359      7.679     18.336     16.302     16.302     16.302      1.053      2.285      3.442      5.518      9.811      1.925     32.859      0.059     68.790     20.825     47.427    100.000     50.032      6.466      0.197
   1146.700      6.000     67.167     33.739      2.194     98.325     77.831      3.367      7.807     12.680     14.991     14.991     14.991      1.039      2.230      3.326      5.300      9.467      1.911     30.387      0.063     68.665     21.811     47.606    100.000     55.597      6.433      0.212
   1146.800      6.000     66.447     33.564      2.201     96.463     76.306      3.366      7.847     12.069     14.824     14.824     14.824      1.036      2.180      3.218      5.072      8.991      1.897     27.155      0.070     68.169     19.841     47.791    100.000     55.650      6.384      0.237
   1146.900      6.000     65.587     33.552      2.204     94.772     73.455      3.362      7.763     13.004     15.077     15.077     15.077      1.035      2.120      3.092      4.775      8.482      1.883     23.972      0.079     67.539     17.004     47.982    100.000     53.783      6.331      0.266
   1147.000      6.000     64.589     33.721      2.206     93.282     69.689      3.353      7.569     14.316     15.411     15.411     15.411      1.035      2.065      2.964      4.529      7.946      1.871     20.972      0.089     66.770     14.226     48.178    100.000     51.490      6.274      0.300
   1147.100      6.000     63.495     33.842      2.209     91.994     67.898      3.338      7.301     13.420     15.186     15.186     15.186      1.045      2.035      2.883      4.369      7.583      1.865     18.790      0.100     66.010     13.329     48.383    100.000     51.991      6.225      0.333
   1147.200      6.000     62.462     33.633      2.214     91.257     68.461      3.320      6.998     11.299     14.604     14.604     14.604      1.053      2.046      2.840      4.340      7.208      1.864     17.103      0.109     65.362     13.977     48.599    100.000     54.405      6.186      0.362
   1147.300      6.000     61.532     33.079      2.220     90.759     69.862      3.299      6.727      9.147     13.919     13.919     13.919      1.057      2.036      2.835      4.311      7.031      1.867     16.013      0.117     64.876     15.214     48.826    100.000     57.283      6.161      0.385
   1147.400      6.000     61.189     32.553      2.233     90.499     71.926      3.275      6.602      7.608     13.348     13.348     13.348      1.059      2.053      2.875      4.390      7.019      1.882     15.801      0.119     64.744     16.548     49.058    100.000     59.665      6.162      0.390
   1147.500      6.000     61.134     32.510      2.250     90.667     71.679      3.248      6.650      8.694     13.759     13.759     13.759      1.082      2.097      2.985      4.602      7.365      1.901     16.075      0.118     64.703     15.788     49.284    100.000     58.037      6.176      0.385
   1147.600      6.000     61.408     32.903      2.264     91.066     68.901      3.220      6.822     12.523     14.949     14.949     14.949      1.113      2.171      3.113      4.893      7.906      1.928     16.924      0.114     64.743     13.288     49.487    100.000     52.862      6.206      0.367
   1147.700      6.000     61.939     33.217      2.270     91.696     64.733      3.189      7.033     19.252     16.484     16.484     16.484      1.144      2.203      3.211      5.138      8.258      1.961     18.754      0.105     64.724     10.388     49.648    100.000     45.520      6.251      0.335
   1147.800      6.000     62.399     33.020      2.269     93.030     60.697      3.157      7.262     28.586     18.033     18.033     18.033      1.155      2.240      3.244      5.282      8.586      1.996     21.116      0.095     64.606      8.223     49.745    100.000     37.561      6.300      0.301
   1147.900      6.000     62.724     32.460      2.269     94.676     58.709      3.126      7.448     37.685     19.202     19.202     19.202      1.148      2.227      3.252      5.341      8.703      2.032     24.105      0.084     64.356      7.475     49.758    100.000     31.386      6.351      0.264
   1148.000      6.000     62.568     32.065      2.280     96.634     59.210      3.099      7.616     46.054     20.098     20.098     20.098      1.131      2.204      3.196      5.313      8.763      2.066     27.512      0.076     63.937      7.905     49.670    100.000     17.112      6.403      0.235
   1148.100      6.000     62.251     31.975      2.303     99.007     60.450      3.077      7.738     56.063     21.016     21.016     21.016      1.128      2.182      3.187      5.372      8.841      2.097     30.486      0.069     63.515      8.713     49.470    100.000     15.794      6.454      0.212
