~Version Information
 VERS.                 2.0:   CWLS Log ASCII Standard - VERSION 2.0
 WRAP.                  NO:   One line per depth step
~Well Information Block
#MNEM.UNIT         DATA            DESCRIPTION OF MNEMONIC
#---------    -------------   -------------------------------
 STRT.M            1057.200:   START DEPTH
 STOP.M            2380.000:   STOP DEPTH
 STEP.M               0.100:   STEP DEPTH
 NULL.           -99999.000:   NULL VALUE
 COMP.                    :   COMPANY
 WELL.          Zakiganj-1:   Well
 FLD .                    :   FIELD
 LOC .                    :   Location
 CNTY.                    :   County
 STAT.                    :   State
 CTRY.                    :   Country
 SRVC.        CNPC Logging:   Service Company
 DATE.          21/04/2021:   Date
 API .                    :   API Number
~Curve Information Block
#MNEM.UNIT      API CODE             CURVE DESCRIPTION
#---------    -------------   ------------------------------
 DEPT.M                   :     DEPTH
 CAL.in                   :     Density caliper
 CGR .API                 :     Gamma ray minus uranium
 CNL .%                   :     Compensated neutron
 DEN .g/cm3               :     Bulk Density 
 AC .us/ft                :     Acoustic
 GR  .API                 :     Gamma Ray
 K   .%                   :     Potassium
 PE  .b/e                 :     Photoelectric factor
 PERM.mD                  :     Permeability
 POR .%                   :     Porosity
 PORF.%                   :     Porosity of water
 PORW.%                   :     Porosity of flush zone
 RAL1.ohmm                :     Array laterlog
 RAL2.ohmm                :     Array laterlog
 RAL3.ohmm                :     Array laterlog
 RAL4.ohmm                :     Array laterlog
 RAL5.ohmm                :     Array laterlog
 RTHK.none                :     Ratio of TH and K
 RTHU.none                :     Ratio of TH and U
 RUK .none                :     Ratio of U and K
 SGR .API                 :     Spectrum Gamma Ray
 SH  .%                   :     Shale content
 SP  .mV                  :     Spontaneous potential
 SW  .%                   :     Water saturation
 SWIR.%                   :     Irreducible water Saturation
 TH  .ppm                 :     Thorium
 U   .ppm                 :     Uranium
~A DEPT     CAL          CGR          CNL          DEN          AC           GR            K           PE         PERM          POR         PORF         PORW         RAL1         RAL2         RAL3     RAL4         RAL5         RTHK         RTHU          RUK          SGR           SH           SP           SW         SWIR           TH            U  
# ...
   1408.200      6.000    120.125     40.506      0.000    101.548    139.287      4.248      0.003      0.010      0.010      0.010      0.010      1.728      3.193      3.179      3.233      3.293      3.305     51.397      0.064    122.445     99.900     82.963    100.000    100.000     14.039      0.273
   1408.300      6.000    119.917     39.730      0.000    101.258    138.007      4.250      0.003      0.010      0.010      0.010      0.010      1.733      3.191      3.178      3.228      3.289      3.300     52.012      0.063    122.173     99.900     82.920    100.000    100.000     14.029      0.270
   1408.400      6.000    119.601     38.751      0.000    100.901    135.903      4.254      0.003      0.010      0.010      0.010      0.010      1.734      3.178      3.173      3.205      3.266      3.294     52.963      0.062    121.666     99.900     82.897    100.000    100.000     14.013      0.265
   1408.500      6.000    119.181     37.953      0.000    100.544    134.021      4.259      0.003      0.010      0.010      0.010      0.010      1.735      3.156      3.158      3.171      3.242      3.286     54.093      0.061    120.977     99.900     82.903    100.000    100.000     13.996      0.259
   1408.600      6.000    118.468     37.402      0.000    100.216    132.221      4.268      0.003      0.010      0.010      0.010      0.010      1.728      3.142      3.144      3.149      3.235      3.278     54.762      0.060    120.069     98.917     82.939    100.000    100.000     13.988      0.255
   1408.700      6.000    117.791     36.987      0.000     99.919    131.785      4.279      0.003      0.010      0.010      0.010      0.010      1.733      3.167      3.170      3.173      3.273      3.271     54.475      0.060    119.384     99.109     83.003    100.000    100.000     13.997      0.257
   1408.800      6.000    117.185     36.684      0.000     99.807    132.351      4.293      0.003      0.010      0.010      0.010      0.010      1.749      3.247      3.270      3.270      3.375      3.266     53.374      0.061    118.916     99.900     83.089    100.000    100.000     14.021      0.263
   1408.900      6.000    117.029     36.650      0.000     99.815    134.826      4.312      0.003      0.010      0.010      0.010      0.010      1.784      3.361      3.413      3.409      3.527      3.264     50.719      0.064    119.052     99.900     83.190    100.000    100.000     14.074      0.278
   1409.000      6.000    117.136     37.012      0.000     99.944    135.319      4.333      0.003      0.010      0.010      0.010      0.010      1.803      3.413      3.473      3.476      3.600      3.264     47.693      0.069    119.433     99.900     83.298    100.000    100.000     14.143      0.297
   1409.100      6.000    117.410     37.604      0.000    100.171    134.220      4.356      0.003      0.010      0.010      0.010      0.010      1.787      3.347      3.374      3.384      3.497      3.265     44.464      0.073    119.961     99.900     83.404    100.000    100.000     14.222      0.320
   1409.200      6.000    117.592     38.010      0.000    100.057    132.898      4.381      0.003      0.010      0.010      0.010      0.010      1.751      3.238      3.217      3.234      3.330      3.266     41.649      0.079    120.337     99.900     83.498    100.000    100.000     14.310      0.344
   1409.300      6.000    117.978     37.901      0.000    100.747    131.834      4.407      0.003      0.010      0.010      0.010      0.010      1.727      3.163      3.111      3.124      3.224      3.265     39.319      0.083    120.876     98.161     83.566    100.000    100.000     14.391      0.367
   1409.400      6.000    118.476     37.466      0.000    101.002    131.680      4.433      0.002      0.010      0.010      0.010      0.010      1.717      3.121      3.070      3.080      3.177      3.263     37.369      0.087    121.500     98.771     83.600    100.000    100.000     14.466      0.387
   1409.500      6.000    118.750     37.251      0.000    101.173    132.960      4.457      0.002      0.010      0.010      0.010      0.010      1.716      3.112      3.056      3.061      3.167      3.258     35.926      0.091    121.918     99.900     83.595    100.000    100.000     14.522      0.405
   1409.600      6.000    119.067     37.513      0.000    101.261    133.580      4.477      0.002      0.010      0.010      0.010      0.010      1.721      3.113      3.076      3.082      3.196      3.253     34.557      0.094    122.350     99.900     83.552    100.000    100.000     14.563      0.422
   1409.700      6.000    119.412     37.986      0.000    101.280    132.878      4.494      0.002      0.010      0.010      0.010      0.010      1.732      3.148      3.119      3.132      3.263      3.247     33.223      0.098    122.787     99.900     83.479    100.000    100.000     14.591      0.439
   1409.800      6.000    119.750     38.271      0.000    101.258    131.363      4.502      0.002      0.010      0.010      0.010      0.010      1.746      3.197      3.192      3.216      3.338      3.241     31.771      0.102    123.185     95.278     83.389    100.000    100.000     14.593      0.460
   1409.900      6.000    119.587     38.334      0.000    101.197    129.644      4.505      0.002      0.010      0.010      0.010      0.010      1.767      3.276      3.295      3.334      3.446      3.237     30.290      0.107    123.154     88.171     83.298    100.000    100.000     14.584      0.482
   1410.000      6.000    118.996     38.457      0.000    101.106    129.475      4.504      0.002      0.010      0.010      0.010      0.010      1.795      3.384      3.432      3.487      3.599      3.235     28.804      0.112    122.758     89.687     83.222    100.000    100.000     14.567      0.506
   1410.100      6.000    117.548     38.768      0.000    101.039    131.054      4.498      0.002      0.010      0.010      0.010      0.010      1.821      3.473      3.552      3.618      3.751      3.235     27.434      0.118    121.641     98.119     83.178    100.000    100.000     14.549      0.531
   1410.200      6.000    116.270     38.992      0.000    100.998    133.193      4.494      0.002      0.010      0.010      0.010      0.010      1.824      3.475      3.560      3.620      3.765      3.236     26.232      0.123    120.658     99.900     83.175    100.000    100.000     14.542      0.555
   1410.300      6.000    115.203     38.813      0.000    100.931    135.081      4.492      0.002      0.010      0.010      0.010      0.010      1.794      3.368      3.437      3.481      3.616      3.238     25.184      0.129    119.846     99.900     83.221    100.000    100.000     14.546      0.578
   1410.400      6.000    114.974     38.321      0.000    100.846    135.508      4.500      0.002      0.010      0.010      0.010      0.010      1.753      3.242      3.288      3.314      3.452      3.240     24.497      0.132    119.761     99.900     83.311    100.000    100.000     14.582      0.595
   1410.500      6.000    115.419     37.878      0.000    100.743    133.758      4.517      0.002      0.010      0.010      0.010      0.010      1.721      3.163      3.186      3.211      3.336      3.241     24.070      0.135    120.288     99.900     83.433    100.000    100.000     14.639      0.608
   1410.600      6.000    116.387     37.644      0.000    100.642    131.614      4.540      0.003      0.010      0.010      0.010      0.010      1.705      3.126      3.136      3.170      3.269      3.240     23.858      0.136    121.287     95.975     83.568    100.000    100.000     14.711      0.617
   1410.700      6.000    118.059     37.488      0.000    100.527    131.101      4.574      0.003      0.010      0.010      0.010      0.010      1.700      3.127      3.125      3.170      3.232      3.235     24.026      0.135    122.896     96.145     83.690    100.000    100.000     14.797      0.616
