~Version Information
 VERS.                 2.0:   CWLS Log ASCII Standard - VERSION 2.0
 WRAP.                  NO:   One line per depth step
~Well Information Block
#MNEM.UNIT         DATA            DESCRIPTION OF MNEMONIC
#---------    -------------   -------------------------------
 STRT.M            1057.200:   START DEPTH
 STOP.M            2380.000:   STOP DEPTH
 STEP.M               0.100:   STEP DEPTH
 NULL.           -99999.000:   NULL VALUE
 COMP.                    :   COMPANY
 WELL.          Zakiganj-1:   Well
 FLD .                    :   FIELD
 LOC .                    :   Location
 CNTY.                    :   County
 STAT.                    :   State
 CTRY.                    :   Country
 SRVC.        CNPC Logging:   Service Company
 DATE.          21/04/2021:   Date
 API .                    :   API Number
~Curve Information Block
#MNEM.UNIT      API CODE             CURVE DESCRIPTION
#---------    -------------   ------------------------------
 DEPT.M                   :     DEPTH
 CAL.in                   :     Density caliper
 CGR .API                 :     Gamma ray minus uranium
 CNL .%                   :     Compensated neutron
 DEN .g/cm3               :     Bulk Density 
 AC .us/ft                :     Acoustic
 GR  .API                 :     Gamma Ray
 K   .%                   :     Potassium
 PE  .b/e                 :     Photoelectric factor
 PERM.mD                  :     Permeability
 POR .%                   :     Porosity
 PORF.%                   :     Porosity of water
 PORW.%                   :     Porosity of flush zone
 RAL1.ohmm                :     Array laterlog
 RAL2.ohmm                :     Array laterlog
 RAL3.ohmm                :     Array laterlog
 RAL4.ohmm                :     Array laterlog
 RAL5.ohmm                :     Array laterlog
 RTHK.none                :     Ratio of TH and K
 RTHU.none                :     Ratio of TH and U
 RUK .none                :     Ratio of U and K
 SGR .API                 :     Spectrum Gamma Ray
 SH  .%                   :     Shale content
 SP  .mV                  :     Spontaneous potential
 SW  .%                   :     Water saturation
 SWIR.%                   :     Irreducible water Saturation
 TH  .ppm                 :     Thorium
 U   .ppm                 :     Uranium
~A DEPT     CAL          CGR          CNL          DEN          AC           GR            K           PE         PERM          POR         PORF         PORW         RAL1         RAL2         RAL3     RAL4         RAL5         RTHK         RTHU          RUK          SGR           SH           SP           SW         SWIR           TH            U  
# ...
   1673.400      6.000    106.751     38.691      0.000     97.108    125.215      4.475      0.001      0.010      0.010      0.010      0.010      1.589      3.428      3.842      3.944      3.951      2.660     23.100      0.115    110.836     73.315     64.284    100.000    100.000     11.905      0.516
   1673.500      6.000    105.976     39.613      0.000     97.567    125.128      4.467      0.001      0.010      0.010      0.010      0.010      1.566      3.396      3.828      3.913      3.922      2.653     22.376      0.119    110.213     73.194     64.514    100.000    100.000     11.853      0.530
   1673.600      6.000    105.425     41.783      0.000     98.037    125.848      4.460      0.001      0.010      0.010      0.010      0.010      1.549      3.361      3.804      3.873      3.882      2.653     21.854      0.121    109.768     76.851     64.963    100.000    100.000     11.831      0.541
   1673.700      6.000    105.277     43.941      0.000     98.345    126.426      4.452      0.001      0.010      0.010      0.010      0.010      1.551      3.357      3.798      3.859      3.867      2.662     21.588      0.123    109.648     77.690     65.569    100.000    100.000     11.851      0.549
   1673.800      6.000    105.624     44.819      0.000     98.522    125.992      4.447      0.001      0.010      0.010      0.010      0.010      1.567      3.381      3.814      3.870      3.879      2.679     21.449      0.125    109.933     75.447     66.259    100.000    100.000     11.917      0.556
   1673.900      6.000    106.157     44.111      0.000     98.568    124.869      4.445      0.001      0.010      0.010      0.010      0.010      1.587      3.407      3.816      3.859      3.876      2.701     21.312      0.127    110.396     71.114     66.969    100.000    100.000     12.006      0.563
   1674.000      6.000    106.836     42.483      0.000     98.376    124.247      4.446      0.001      0.010      0.010      0.010      0.010      1.606      3.415      3.793      3.829      3.838      2.727     21.106      0.129    111.037     70.275     67.638    100.000    100.000     12.124      0.574
   1674.100      6.000    107.423     40.820      0.000     98.035    123.221      4.452      0.001      0.010      0.010      0.010      0.010      1.628      3.426      3.770      3.803      3.805      2.753     20.722      0.133    111.717     65.515     68.204    100.000    100.000     12.260      0.592
   1674.200      6.000    107.860     39.668      0.000     97.547    122.199      4.462      0.001      0.010      0.010      0.010      0.010      1.652      3.463      3.769      3.806      3.805      2.779     20.269      0.137    112.344     63.611     68.615    100.000    100.000     12.398      0.612
   1674.300      6.000    108.005     39.148      0.000     96.844    122.126      4.475      0.001      0.010      0.010      0.010      0.010      1.676      3.509      3.788      3.824      3.834      2.801     19.762      0.142    112.827     63.797     68.834    100.000    100.000     12.536      0.635
   1674.400      6.000    108.073     39.166      0.000     96.101    121.228      4.490      0.001      0.010      0.010      0.010      0.010      1.705      3.559      3.823      3.860      3.886      2.819     19.427      0.145    113.302     59.746     68.853    100.000    100.000     12.659      0.652
   1674.500      6.000    108.139     39.634      0.000     95.318    120.448      4.505      0.001      0.010      0.010      0.010      0.010      1.735      3.614      3.887      3.933      3.967      2.835     19.277      0.147    113.716     58.846     68.697    100.000    100.000     12.770      0.662
   1674.600      6.000    108.242     40.267      0.000     94.440    119.290      4.520      0.001      0.010      0.010      0.010      0.010      1.762      3.687      3.982      4.038      4.090      2.846     19.453      0.146    113.993     54.268     68.411    100.000    100.000     12.863      0.661
   1674.700      6.000    108.258     40.621      0.000     93.635    119.173      4.532      0.001      0.010      0.010      0.010      0.010      1.789      3.786      4.119      4.190      4.261      2.855     20.113      0.142    113.804     56.418     68.060    100.000    100.000     12.940      0.644
   1674.800      6.000    108.259     40.457      0.000     92.904    120.306      4.543      0.001      0.010      0.010      0.010      0.010      1.826      3.921      4.321      4.417      4.512      2.864     21.056      0.136    113.403     59.075     67.713    100.000    100.000     13.008      0.619
   1674.900      6.000    108.274     39.862      0.000     92.450    120.893      4.552      0.001      0.010      0.010      0.010      0.010      1.882      4.097      4.565      4.696      4.821      2.871     22.378      0.128    112.777     60.366     67.433    100.000    100.000     13.069      0.585
   1675.000      6.000    108.290     39.069      0.000     92.116    121.057      4.559      0.002      0.010      0.010      0.010      0.010      1.932      4.217      4.711      4.863      4.991      2.879     23.790      0.121    112.202     60.559     67.256    100.000    100.000     13.127      0.553
   1675.100      6.000    108.270     38.224      0.000     91.900    121.366      4.565      0.002      0.010      0.010      0.010      0.010      1.950      4.199      4.624      4.756      4.882      2.888     24.995      0.116    111.727     61.870     67.190    100.000    100.000     13.184      0.528
   1675.200      6.000    108.169     37.235      0.000     92.023    121.932      4.571      0.002      0.010      0.010      0.010      0.010      1.930      4.054      4.354      4.439      4.550      2.896     25.689      0.113    111.450     63.542     67.214    100.000    100.000     13.240      0.515
   1675.300      6.000    107.948     36.150      0.000     92.215    122.638      4.577      0.002      0.010      0.010      0.010      0.010      1.890      3.877      4.072      4.108      4.215      2.905     25.293      0.115    111.431     65.865     67.301    100.000    100.000     13.295      0.526
   1675.400      6.000    107.570     35.280      0.000     92.478    123.357      4.583      0.002      0.010      0.010      0.010      0.010      1.864      3.769      3.908      3.920      4.021      2.912     24.351      0.120    111.414     67.963     67.421    100.000    100.000     13.347      0.549
   1675.500      6.000    106.906     34.890      0.000     92.806    123.643      4.590      0.002      0.010      0.010      0.010      0.010      1.856      3.731      3.857      3.865      3.952      2.918     22.764      0.128    111.269     68.338     67.542    100.000    100.000     13.395      0.589
   1675.600      6.000    105.900     34.924      0.000     93.134    123.218      4.598      0.002      0.010      0.010      0.010      0.010      1.867      3.755      3.899      3.918      3.969      2.922     21.189      0.138    110.835     66.378     67.626    100.000    100.000     13.435      0.636
   1675.700      6.000    104.866     35.186      0.000     93.461    122.489      4.607      0.002      0.010      0.010      0.010      0.010      1.877      3.781      3.939      3.968      3.990      2.924     19.810      0.148    110.368     64.213     67.626    100.000    100.000     13.472      0.681
   1675.800      6.000    103.949     35.685      0.000     93.706    122.133      4.616      0.002      0.010      0.010      0.010      0.010      1.875      3.833      3.997      4.024      4.060      2.925     18.863      0.155    109.976     63.632     67.495    100.000    100.000     13.502      0.716
   1675.900      6.000    103.492     36.383      0.000     93.895    122.989      4.626      0.002      0.010      0.010      0.010      0.010      1.882      3.948      4.151      4.174      4.241      2.925     18.586      0.157    109.818     67.603     67.207    100.000    100.000     13.531      0.728
