~Version Information
 VERS.                 2.0:   CWLS Log ASCII Standard - VERSION 2.0
 WRAP.                  NO:   One line per depth step
~Well Information Block
#MNEM.UNIT         DATA            DESCRIPTION OF MNEMONIC
#---------    -------------   -------------------------------
 STRT.M            1057.200:   START DEPTH
 STOP.M            2380.000:   STOP DEPTH
 STEP.M               0.100:   STEP DEPTH
 NULL.           -99999.000:   NULL VALUE
 COMP.                    :   COMPANY
 WELL.          Zakiganj-1:   Well
 FLD .                    :   FIELD
 LOC .                    :   Location
 CNTY.                    :   County
 STAT.                    :   State
 CTRY.                    :   Country
 SRVC.        CNPC Logging:   Service Company
 DATE.          21/04/2021:   Date
 API .                    :   API Number
~Curve Information Block
#MNEM.UNIT      API CODE             CURVE DESCRIPTION
#---------    -------------   ------------------------------
 DEPT.M                   :     DEPTH
 CAL.in                   :     Density caliper
 CGR .API                 :     Gamma ray minus uranium
 CNL .%                   :     Compensated neutron
 DEN .g/cm3               :     Bulk Density 
 AC .us/ft                :     Acoustic
 GR  .API                 :     Gamma Ray
 K   .%                   :     Potassium
 PE  .b/e                 :     Photoelectric factor
 PERM.mD                  :     Permeability
 POR .%                   :     Porosity
 PORF.%                   :     Porosity of water
 PORW.%                   :     Porosity of flush zone
 RAL1.ohmm                :     Array laterlog
 RAL2.ohmm                :     Array laterlog
 RAL3.ohmm                :     Array laterlog
 RAL4.ohmm                :     Array laterlog
 RAL5.ohmm                :     Array laterlog
 RTHK.none                :     Ratio of TH and K
 RTHU.none                :     Ratio of TH and U
 RUK .none                :     Ratio of U and K
 SGR .API                 :     Spectrum Gamma Ray
 SH  .%                   :     Shale content
 SP  .mV                  :     Spontaneous potential
 SW  .%                   :     Water saturation
 SWIR.%                   :     Irreducible water Saturation
 TH  .ppm                 :     Thorium
 U   .ppm                 :     Uranium
~A DEPT     CAL          CGR          CNL          DEN          AC           GR            K           PE         PERM          POR         PORF         PORW         RAL1         RAL2         RAL3     RAL4         RAL5         RTHK         RTHU          RUK          SGR           SH           SP           SW         SWIR           TH            U  
# ...
   2112.800     15.007    106.041     37.334      2.273     78.994    120.560      4.404      7.727      0.010      0.010      0.010      0.010      1.815      4.980      7.057      8.104      8.772      3.008     20.889      0.144    110.841     47.100      9.420    100.000    100.000     13.247      0.636
   2112.900     14.643    108.450     37.050      2.282     78.778    124.377      4.395      7.240      0.010      0.010      0.010      0.010      1.903      5.256      7.476      8.565      9.275      3.143     22.889      0.138    112.863     53.940      9.399    100.000    100.000     13.814      0.604
   2113.000     14.383    110.390     37.966      2.232     78.713    125.645      4.390      7.037      0.010      0.010      0.010      0.010      1.990      5.431      7.673      8.728      9.399      3.265     24.860      0.131    114.505     55.143      9.376    100.000    100.000     14.330      0.577
   2113.100     14.060    111.307     38.607      2.164     78.852    124.737      4.391      6.910      0.010      0.010      0.010      0.010      2.059      5.475      7.646      8.627      9.236      3.356     26.505      0.127    115.330     53.036      9.372    100.000    100.000     14.736      0.557
   2113.200     13.584    111.696     38.019      2.142     79.087    124.464      4.396      6.811      0.010      0.010      0.010      0.010      2.111      5.453      7.484      8.372      8.940      3.428     27.916      0.123    115.736     54.096      9.417    100.000    100.000     15.071      0.540
   2113.300     13.071    111.454     36.122      2.200     79.418    126.480      4.408      6.718      0.010      0.010      0.010      0.010      2.147      5.424      7.244      8.025      8.519      3.472     28.973      0.120    115.645     59.251      9.536    100.000    100.000     15.306      0.528
   2113.400     12.697    112.038     33.490      2.315     79.847    128.772      4.426      6.642      0.010      0.010      0.010      0.010      2.161      5.413      6.993      7.672      8.093      3.493     29.898      0.117    116.181     64.720      9.734    100.000    100.000     15.460      0.517
   2113.500     12.524    113.082     30.946      2.437     80.237    129.964      4.444      6.646      0.010      0.010      0.010      0.010      2.179      5.466      6.846      7.438      7.792      3.505     30.897      0.114    117.126     66.126      9.982    100.000    100.000     15.579      0.504
   2113.600     12.482    114.714     29.180      2.526     80.587    129.016      4.464      6.894      0.010      0.010      0.010      0.010      2.206      5.560      6.817      7.358      7.654      3.509     32.148      0.109    118.658     63.027     10.229    100.000    100.000     15.663      0.487
   2113.700     12.477    116.575     28.474      2.572     80.817    127.886      4.479      7.423      0.010      0.010      0.010      0.010      2.237      5.646      6.812      7.295      7.568      3.512     34.126      0.103    120.321     61.343     10.421    100.000    100.000     15.728      0.462
   2113.800     12.474    118.294     28.536      2.585     80.959    128.497      4.491      8.195      0.010      0.010      0.010      0.010      2.253      5.694      6.815      7.251      7.494      3.514     36.671      0.096    121.784     63.941     10.524    100.000    100.000     15.779      0.432
   2113.900     12.473    119.548     28.717      2.584     81.012    130.042      4.496      9.270      0.010      0.010      0.010      0.010      2.266      5.731      6.887      7.280      7.484      3.515     40.109      0.088    122.707     67.547     10.534    100.000    100.000     15.805      0.395
   2114.000     12.475    119.792     28.486      2.586     80.941    130.699      4.493     10.641      0.010      0.010      0.010      0.010      2.278      5.791      7.016      7.367      7.560      3.514     44.461      0.080    122.587     68.593     10.480    100.000    100.000     15.788      0.357
   2114.100     12.480    119.601     27.778      2.599     80.790    130.177      4.485     12.200      0.010      0.010      0.010      0.010      2.293      5.882      7.150      7.449      7.641      3.511     48.746      0.072    122.014     66.053     10.404    100.000    100.000     15.745      0.324
   2114.200     12.485    118.983     26.958      2.614     80.559    128.554      4.471     13.834      0.010      0.010      0.010      0.010      2.282      5.909      7.143      7.374      7.588      3.504     52.355      0.067    120.991     61.893     10.344    100.000    100.000     15.666      0.300
   2114.300     12.488    118.369     26.472      2.618     80.283    127.332      4.453     15.406      0.010      0.010      0.010      0.010      2.263      5.820      6.962      7.132      7.323      3.494     52.235      0.067    120.010     59.516     10.318    100.000    100.000     15.559      0.298
   2114.400     12.488    117.655     26.450      2.609     80.014    127.161      4.435     16.876      0.010      0.010      0.010      0.010      2.245      5.745      6.813      6.954      7.117      3.482     49.817      0.070    119.154     59.708     10.320    100.000    100.000     15.444      0.311
   2114.500     12.488    116.706     26.688      2.599     79.753    127.926      4.420     18.197      0.010      0.010      0.010      0.010      2.248      5.735      6.803      6.930      7.067      3.467     44.215      0.079    118.560     62.251     10.335    100.000    100.000     15.323      0.348
   2114.600     12.488    115.556     26.965      2.596     79.473    129.696      4.411     19.276      0.010      0.010      0.010      0.010      2.247      5.740      6.816      6.942      7.077      3.450     38.187      0.092    118.174     67.955     10.346    100.000    100.000     15.216      0.404
   2114.700     12.488    114.452     27.255      2.599     79.238    132.161      4.407     20.014      0.010      0.010      0.010      0.010      2.239      5.783      6.926      7.055      7.169      3.431     32.591      0.106    117.986     74.078     10.348    100.000    100.000     15.120      0.467
   2114.800     12.488    113.567     27.575      2.602     79.051    133.403      4.411     20.567      0.010      0.010      0.010      0.010      2.247      5.917      7.201      7.347      7.464      3.411     28.215      0.121    118.134     77.251     10.353    100.000    100.000     15.043      0.536
   2114.900     12.490    113.442     27.776      2.603     78.892    133.763      4.421     21.086      0.010      0.010      0.010      0.010      2.258      6.051      7.451      7.625      7.734      3.390     25.373      0.134    118.749     77.457     10.379    100.000    100.000     14.986      0.594
   2115.000     12.491    113.786     27.652      2.604     78.753    133.065      4.435     21.488      0.010      0.010      0.010      0.010      2.258      6.064      7.469      7.654      7.779      3.369     23.322      0.145    119.567     74.614     10.444    100.000    100.000     14.942      0.641
   2115.100     12.491    114.775     27.215      2.606     78.634    131.913      4.451     21.679      0.010      0.010      0.010      0.010      2.243      6.013      7.329      7.520      7.644      3.350     22.225      0.151    120.587     71.818     10.550    100.000    100.000     14.911      0.671
   2115.200     12.494    115.774     26.735      2.607     78.545    131.606      4.465     21.678      0.010      0.010      0.010      0.010      2.244      6.051      7.377      7.586      7.741      3.335     21.815      0.153    121.308     71.609     10.688    100.000    100.000     14.888      0.682
   2115.300     12.510    116.634     26.404      2.603     78.484    132.165      4.475     21.563      0.010      0.010      0.010      0.010      2.270      6.233      7.741      8.023      8.215      3.321     21.680      0.153    121.855     73.860     10.836    100.000    100.000     14.863      0.686
