~Version Information
 VERS.                 2.0:   CWLS Log ASCII Standard - VERSION 2.0
 WRAP.                  NO:   One line per depth step
~Well Information Block
#MNEM.UNIT         DATA            DESCRIPTION OF MNEMONIC
#---------    -------------   -------------------------------
 STRT.M            1057.200:   START DEPTH
 STOP.M            2380.000:   STOP DEPTH
 STEP.M               0.100:   STEP DEPTH
 NULL.           -99999.000:   NULL VALUE
 COMP.                    :   COMPANY
 WELL.          Zakiganj-1:   Well
 FLD .                    :   FIELD
 LOC .                    :   Location
 CNTY.                    :   County
 STAT.                    :   State
 CTRY.                    :   Country
 SRVC.        CNPC Logging:   Service Company
 DATE.          21/04/2021:   Date
 API .                    :   API Number
~Curve Information Block
#MNEM.UNIT      API CODE             CURVE DESCRIPTION
#---------    -------------   ------------------------------
 DEPT.M                   :     DEPTH
 CAL.in                   :     Density caliper
 CGR .API                 :     Gamma ray minus uranium
 CNL .%                   :     Compensated neutron
 DEN .g/cm3               :     Bulk Density 
 AC .us/ft                :     Acoustic
 GR  .API                 :     Gamma Ray
 K   .%                   :     Potassium
 PE  .b/e                 :     Photoelectric factor
 PERM.mD                  :     Permeability
 POR .%                   :     Porosity
 PORF.%                   :     Porosity of water
 PORW.%                   :     Porosity of flush zone
 RAL1.ohmm                :     Array laterlog
 RAL2.ohmm                :     Array laterlog
 RAL3.ohmm                :     Array laterlog
 RAL4.ohmm                :     Array laterlog
 RAL5.ohmm                :     Array laterlog
 RTHK.none                :     Ratio of TH and K
 RTHU.none                :     Ratio of TH and U
 RUK .none                :     Ratio of U and K
 SGR .API                 :     Spectrum Gamma Ray
 SH  .%                   :     Shale content
 SP  .mV                  :     Spontaneous potential
 SW  .%                   :     Water saturation
 SWIR.%                   :     Irreducible water Saturation
 TH  .ppm                 :     Thorium
 U   .ppm                 :     Uranium
~A DEPT     CAL          CGR          CNL          DEN          AC           GR            K           PE         PERM          POR         PORF         PORW         RAL1         RAL2         RAL3     RAL4         RAL5         RTHK         RTHU          RUK          SGR           SH           SP           SW         SWIR           TH            U  
# ...
   1585.000      6.000    107.826     37.013      0.000     95.096    118.365      4.111      0.003      0.010      0.010      0.010      0.010      1.366      2.158      2.079      2.147      2.237      2.965     56.296      0.053    109.406     54.651     55.632    100.000    100.000     12.187      0.217
   1585.100      6.000    107.270     36.853      0.000     95.412    120.922      4.110      0.003      0.010      0.010      0.010      0.010      1.412      2.286      2.218      2.298      2.383      2.970     57.715      0.051    108.905     62.348     55.970    100.000    100.000     12.208      0.212
   1585.200      6.000    107.117     36.552      0.000     95.557    122.862      4.101      0.003      0.010      0.010      0.010      0.010      1.435      2.370      2.306      2.386      2.475      2.982     57.309      0.052    108.762     66.992     56.317    100.000    100.000     12.227      0.213
   1585.300      6.000    107.110     36.230      0.000     95.715    122.157      4.087      0.003      0.010      0.010      0.010      0.010      1.415      2.340      2.273      2.336      2.419      2.996     56.264      0.053    108.752     62.248     56.647    100.000    100.000     12.245      0.218
   1585.400      6.000    107.253     36.149      0.000     95.884    118.639      4.069      0.003      0.010      0.010      0.010      0.010      1.376      2.250      2.183      2.216      2.295      3.014     54.568      0.055    108.883     51.057     56.935    100.000    100.000     12.263      0.225
   1585.500      6.000    106.970     35.757      0.000     96.125    114.538      4.045      0.003      0.010      0.010      0.010      0.010      1.347      2.170      2.112      2.118      2.188      3.036     52.372      0.058    108.670     42.119     57.160    100.000    100.000     12.280      0.235
   1585.600      6.000    106.396     35.528      0.000     96.362    110.030      4.019      0.003      0.010      0.010      0.010      0.010      1.330      2.123      2.073      2.060      2.115      3.059     49.942      0.061    108.210     33.075     57.309    100.000    100.000     12.294      0.247
   1585.700      6.000    105.457     35.607      0.000     96.594    106.462      3.989      0.003      0.010      0.010      0.010      0.010      1.317      2.100      2.049      2.022      2.075      3.085     47.245      0.065    107.439     28.235     57.383    100.000    100.000     12.305      0.261
   1585.800      6.000    104.393     36.112      0.000     96.665    104.710      3.955      0.003      0.010      0.010      0.010      0.010      1.324      2.132      2.069      2.039      2.088      3.113     44.295      0.070    106.525     26.271     57.395    100.000    100.000     12.311      0.279
   1585.900      6.000    103.374     36.960      0.000     96.639    106.499      3.920      0.003      0.010      0.010      0.010      0.010      1.356      2.233      2.152      2.126      2.182      3.142     41.444      0.076    105.648     30.891     57.360    100.000    100.000     12.317      0.298
   1586.000      6.000    102.444     37.718      0.000     96.518    110.891      3.885      0.003      0.010      0.010      0.010      0.010      1.395      2.344      2.252      2.229      2.285      3.172     38.782      0.082    104.851     39.360     57.292    100.000    100.000     12.324      0.318
   1586.100      6.000    101.559     37.988      0.000     96.171    115.850      3.853      0.003      0.010      0.010      0.010      0.010      1.405      2.371      2.261      2.240      2.306      3.204     36.884      0.087    104.173     50.294     57.195    100.000    100.000     12.344      0.335
   1586.200      6.000    100.775     37.779      0.000     95.765    119.362      3.823      0.003      0.010      0.010      0.010      0.010      1.383      2.293      2.168      2.147      2.215      3.236     35.468      0.091    103.596     57.714     57.071    100.000    100.000     12.372      0.349
   1586.300      6.000    100.133     37.500      0.000     95.299    120.028      3.797      0.003      0.010      0.010      0.010      0.010      1.355      2.188      2.055      2.034      2.095      3.269     34.644      0.094    103.149     57.317     56.920    100.000    100.000     12.411      0.358
   1586.400      6.000    100.028     37.626      0.000     94.893    117.892      3.777      0.003      0.010      0.010      0.010      0.010      1.336      2.105      1.978      1.951      2.015      3.299     34.553      0.095    103.073     50.090     56.749    100.000    100.000     12.459      0.361
   1586.500      6.000    100.217     38.329      0.000     94.544    115.724      3.762      0.003      0.010      0.010      0.010      0.010      1.327      2.055      1.941      1.912      1.984      3.324     34.697      0.096    103.191     45.988     56.570    100.000    100.000     12.505      0.360
   1586.600      6.000    100.752     39.362      0.000     94.253    115.427      3.752      0.003      0.010      0.010      0.010      0.010      1.333      2.064      1.967      1.947      2.034      3.345     35.072      0.095    103.536     46.538     56.400    100.000    100.000     12.548      0.358
   1586.700      6.000    101.310     40.229      0.000     94.112    117.287      3.751      0.003      0.010      0.010      0.010      0.010      1.374      2.172      2.097      2.095      2.201      3.351     35.366      0.095    103.883     52.357     56.252    100.000    100.000     12.569      0.355
   1586.800      6.000    101.649     40.487      0.000     94.056    119.988      3.756      0.003      0.010      0.010      0.010      0.010      1.441      2.362      2.311      2.330      2.453      3.349     35.510      0.094    104.103     59.524     56.130    100.000    100.000     12.576      0.354
   1586.900      6.000    101.663     39.911      0.000     94.086    120.164      3.768      0.003      0.010      0.010      0.010      0.010      1.494      2.516      2.473      2.500      2.650      3.335     35.446      0.094    104.138     57.073     56.025    100.000    100.000     12.567      0.355
   1587.000      6.000    101.212     38.675      0.000     94.262    117.581      3.792      0.003      0.010      0.010      0.010      0.010      1.488      2.497      2.437      2.457      2.610      3.306     35.085      0.094    103.923     49.228     55.919    100.000    100.000     12.539      0.357
   1587.100      6.000    100.934     37.100      0.000     94.470    114.492      3.823      0.003      0.010      0.010      0.010      0.010      1.433      2.338      2.249      2.252      2.391      3.271     34.618      0.095    103.859     42.532     55.792    100.000    100.000     12.507      0.361
   1587.200      6.000    100.979     35.530      0.000     94.710    113.736      3.861      0.003      0.010      0.010      0.010      0.010      1.379      2.179      2.068      2.053      2.178      3.230     34.041      0.095    104.053     42.888     55.633    100.000    100.000     12.472      0.366
   1587.300      6.000    101.848     34.427      0.000     94.977    115.507      3.907      0.003      0.010      0.010      0.010      0.010      1.346      2.096      1.972      1.942      2.077      3.186     33.387      0.095    104.859     47.922     55.447    100.000    100.000     12.448      0.373
   1587.400      6.000    102.962     34.317      0.000     95.215    118.785      3.956      0.003      0.010      0.010      0.010      0.010      1.343      2.095      1.968      1.933      2.071      3.143     32.717      0.096    105.868     56.983     55.258    100.000    100.000     12.432      0.380
   1587.500      6.000    104.307     35.392      0.000     95.426    120.894      4.005      0.003      0.010      0.010      0.010      0.010      1.366      2.175      2.050      2.020      2.161      3.102     32.039      0.097    107.082     60.903     55.097    100.000    100.000     12.425      0.388
