~Version Information
 VERS.                 2.0:   CWLS Log ASCII Standard - VERSION 2.0
 WRAP.                  NO:   One line per depth step
~Well Information Block
#MNEM.UNIT         DATA            DESCRIPTION OF MNEMONIC
#---------    -------------   -------------------------------
 STRT.M            1057.200:   START DEPTH
 STOP.M            2380.000:   STOP DEPTH
 STEP.M               0.100:   STEP DEPTH
 NULL.           -99999.000:   NULL VALUE
 COMP.                    :   COMPANY
 WELL.          Zakiganj-1:   Well
 FLD .                    :   FIELD
 LOC .                    :   Location
 CNTY.                    :   County
 STAT.                    :   State
 CTRY.                    :   Country
 SRVC.        CNPC Logging:   Service Company
 DATE.          21/04/2021:   Date
 API .                    :   API Number
~Curve Information Block
#MNEM.UNIT      API CODE             CURVE DESCRIPTION
#---------    -------------   ------------------------------
 DEPT.M                   :     DEPTH
 CAL.in                   :     Density caliper
 CGR .API                 :     Gamma ray minus uranium
 CNL .%                   :     Compensated neutron
 DEN .g/cm3               :     Bulk Density 
 AC .us/ft                :     Acoustic
 GR  .API                 :     Gamma Ray
 K   .%                   :     Potassium
 PE  .b/e                 :     Photoelectric factor
 PERM.mD                  :     Permeability
 POR .%                   :     Porosity
 PORF.%                   :     Porosity of water
 PORW.%                   :     Porosity of flush zone
 RAL1.ohmm                :     Array laterlog
 RAL2.ohmm                :     Array laterlog
 RAL3.ohmm                :     Array laterlog
 RAL4.ohmm                :     Array laterlog
 RAL5.ohmm                :     Array laterlog
 RTHK.none                :     Ratio of TH and K
 RTHU.none                :     Ratio of TH and U
 RUK .none                :     Ratio of U and K
 SGR .API                 :     Spectrum Gamma Ray
 SH  .%                   :     Shale content
 SP  .mV                  :     Spontaneous potential
 SW  .%                   :     Water saturation
 SWIR.%                   :     Irreducible water Saturation
 TH  .ppm                 :     Thorium
 U   .ppm                 :     Uranium
~A DEPT     CAL          CGR          CNL          DEN          AC           GR            K           PE         PERM          POR         PORF         PORW         RAL1         RAL2         RAL3     RAL4         RAL5         RTHK         RTHU          RUK          SGR           SH           SP           SW         SWIR           TH            U  
# ...
   2198.600     14.116    119.048     30.526      2.265     82.072    125.826      4.278      4.086      0.010      0.010      0.010      0.010      2.266      6.232      7.856      8.090      8.269      3.297    126.772      0.026    119.874     57.959     10.918    100.000    100.000     14.105      0.111
   2198.700     13.510    119.338     29.923      2.347     82.910    128.761      4.299      4.108      0.010      0.010      0.010      0.010      2.250      6.268      8.019      8.322      8.490      3.288    136.203      0.024    120.076     65.521     10.775    100.000    100.000     14.135      0.104
   2198.800     12.979    119.634     29.032      2.439     83.707    131.448      4.320      4.151      0.010      0.010      0.010      0.010      2.226      6.220      8.044      8.370      8.536      3.283    146.773      0.022    120.311     71.907     10.563    100.000    100.000     14.183      0.097
   2198.900     12.684    120.140     28.352      2.518     84.335    132.826      4.341      4.172      0.010      0.010      0.010      0.010      2.187      6.005      7.694      7.988      8.147      3.286    158.432      0.021    120.811     76.109     10.333    100.000    100.000     14.267      0.090
   2199.000     12.595    121.056     28.156      2.569     84.822    134.219      4.365      4.216      0.010      0.010      0.010      0.010      2.154      5.696      7.127      7.352      7.495      3.295    168.065      0.020    121.710     80.383     10.153    100.000    100.000     14.380      0.086
   2199.100     12.585    122.244     28.396      2.596     85.167    135.590      4.388      4.394      0.010      0.010      0.010      0.010      2.151      5.546      6.840      7.012      7.150      3.307    175.545      0.019    122.868     85.542     10.082    100.000    100.000     14.511      0.083
   2199.200     12.586    123.794     28.832      2.615     85.306    137.371      4.412      4.908      0.010      0.010      0.010      0.010      2.163      5.519      6.760      6.907      7.045      3.323    177.711      0.019    124.362     91.199     10.139    100.000    100.000     14.663      0.083
   2199.300     12.613    125.364     29.173      2.633     85.314    138.411      4.431      5.792      0.010      0.010      0.010      0.010      2.169      5.500      6.689      6.834      6.934      3.344    177.076      0.019    125.911     94.152     10.298    100.000    100.000     14.818      0.084
   2199.400     12.744    126.828     29.304      2.637     85.192    138.519      4.445      6.899      0.010      0.010      0.010      0.010      2.167      5.517      6.681      6.846      6.923      3.367    175.229      0.019    127.390     93.569     10.504    100.000    100.000     14.969      0.085
   2199.500     12.993    127.800     29.315      2.598     84.787    137.855      4.449      8.317      0.010      0.010      0.010      0.010      2.185      5.622      6.823      7.026      7.081      3.395    173.612      0.020    128.458     91.429     10.699    100.000    100.000     15.103      0.087
   2199.600     13.295    128.141     29.377      2.511     84.335    137.498      4.442     10.000      0.010      0.010      0.010      0.010      2.216      5.770      7.052      7.299      7.355      3.425    173.858      0.020    128.879     90.361     10.848    100.000    100.000     15.211      0.087
   2199.700     13.555    128.092     29.593      2.411     83.836    137.437      4.427     11.901      0.010      0.010      0.010      0.010      2.240      5.875      7.268      7.537      7.603      3.456    175.803      0.020    128.878     90.662     10.948    100.000    100.000     15.300      0.087
   2199.800     13.691    127.591     29.950      2.340     83.368    137.701      4.402     13.730      0.010      0.010      0.010      0.010      2.235      5.944      7.417      7.701      7.780      3.488    181.404      0.019    128.317     90.934     11.023    100.000    100.000     15.357      0.085
   2199.900     13.698    126.758     30.415      2.313     82.947    137.183      4.375     15.296      0.010      0.010      0.010      0.010      2.221      5.951      7.463      7.760      7.859      3.519    191.438      0.018    127.394     88.058     11.108    100.000    100.000     15.394      0.081
   2200.000     13.627    125.809     30.957      2.316     82.571    135.909      4.348     16.345      0.010      0.010      0.010      0.010      2.206      5.947      7.479      7.776      7.896      3.547    204.932      0.017    126.346     84.346     11.232    100.000    100.000     15.421      0.075
   2200.100     13.550    124.994     31.548      2.331     82.381    135.482      4.325     16.746      0.010      0.010      0.010      0.010      2.205      5.917      7.489      7.791      7.911      3.571    224.654      0.016    125.448     83.997     11.408    100.000    100.000     15.445      0.069
   2200.200     13.525    124.589     32.089      2.352     82.268    136.194      4.311     16.659      0.010      0.010      0.010      0.010      2.217      5.930      7.550      7.863      8.016      3.592    247.377      0.015    125.013     87.074     11.632    100.000    100.000     15.482      0.063
   2200.300     13.578    124.507     32.499      2.380     82.232    137.511      4.302     16.292      0.010      0.010      0.010      0.010      2.232      5.952      7.609      7.943      8.111      3.611    269.401      0.013    124.922     91.964     11.896    100.000    100.000     15.533      0.058
   2200.400     13.647    125.007     32.795      2.407     82.238    138.770      4.303     15.935      0.010      0.010      0.010      0.010      2.217      5.968      7.605      7.967      8.180      3.628    282.996      0.013    125.416     95.481     12.186    100.000    100.000     15.613      0.055
   2200.500     13.678    125.849     33.016      2.423     82.234    138.896      4.309     15.742      0.010      0.010      0.010      0.010      2.207      5.966      7.563      7.927      8.130      3.647    274.720      0.013    126.234     95.231     12.489    100.000    100.000     15.715      0.057
   2200.600     13.655    126.875     33.110      2.426     82.218    138.733      4.319     15.603      0.010      0.010      0.010      0.010      2.202      5.959      7.494      7.862      8.065      3.665    252.504      0.015    127.236     96.407     12.788    100.000    100.000     15.829      0.063
   2200.700     13.588    128.050     32.855      2.424     82.193    140.273      4.331     15.677      0.010      0.010      0.010      0.010      2.220      5.965      7.498      7.838      8.057      3.684    212.472      0.018    128.407     99.900     13.069    100.000    100.000     15.956      0.076
   2200.800     13.422    128.722     32.011      2.433     82.120    142.646      4.344     15.991      0.010      0.010      0.010      0.010      2.214      5.996      7.565      7.911      8.196      3.701    174.474      0.022    129.209     99.900     13.320    100.000    100.000     16.075      0.095
   2200.900     13.193    129.038     30.669      2.461     81.998    143.689      4.357     16.632      0.010      0.010      0.010      0.010      2.214      6.059      7.712      8.067      8.414      3.715    139.735      0.027    129.741     99.900     13.536    100.000    100.000     16.187      0.117
   2201.000     13.009    128.790     29.379      2.500     81.819    142.705      4.370     17.389      0.010      0.010      0.010      0.010      2.227      6.135      7.838      8.198      8.540      3.725    114.868      0.033    129.823     99.900     13.722    100.000    100.000     16.277      0.144
   2201.100     12.949    128.308     28.750      2.531     81.638    140.587      4.384     18.058      0.010      0.010      0.010      0.010      2.270      6.192      7.844      8.184      8.522      3.728     97.541      0.039    129.696     99.900     13.890    100.000    100.000     16.345      0.170
