~Version Information
 VERS.                 2.0:   CWLS Log ASCII Standard - VERSION 2.0
 WRAP.                  NO:   One line per depth step
~Well Information Block
#MNEM.UNIT         DATA            DESCRIPTION OF MNEMONIC
#---------    -------------   -------------------------------
 STRT.M            1057.200:   START DEPTH
 STOP.M            2380.000:   STOP DEPTH
 STEP.M               0.100:   STEP DEPTH
 NULL.           -99999.000:   NULL VALUE
 COMP.                    :   COMPANY
 WELL.          Zakiganj-1:   Well
 FLD .                    :   FIELD
 LOC .                    :   Location
 CNTY.                    :   County
 STAT.                    :   State
 CTRY.                    :   Country
 SRVC.        CNPC Logging:   Service Company
 DATE.          21/04/2021:   Date
 API .                    :   API Number
~Curve Information Block
#MNEM.UNIT      API CODE             CURVE DESCRIPTION
#---------    -------------   ------------------------------
 DEPT.M                   :     DEPTH
 CAL.in                   :     Density caliper
 CGR .API                 :     Gamma ray minus uranium
 CNL .%                   :     Compensated neutron
 DEN .g/cm3               :     Bulk Density 
 AC .us/ft                :     Acoustic
 GR  .API                 :     Gamma Ray
 K   .%                   :     Potassium
 PE  .b/e                 :     Photoelectric factor
 PERM.mD                  :     Permeability
 POR .%                   :     Porosity
 PORF.%                   :     Porosity of water
 PORW.%                   :     Porosity of flush zone
 RAL1.ohmm                :     Array laterlog
 RAL2.ohmm                :     Array laterlog
 RAL3.ohmm                :     Array laterlog
 RAL4.ohmm                :     Array laterlog
 RAL5.ohmm                :     Array laterlog
 RTHK.none                :     Ratio of TH and K
 RTHU.none                :     Ratio of TH and U
 RUK .none                :     Ratio of U and K
 SGR .API                 :     Spectrum Gamma Ray
 SH  .%                   :     Shale content
 SP  .mV                  :     Spontaneous potential
 SW  .%                   :     Water saturation
 SWIR.%                   :     Irreducible water Saturation
 TH  .ppm                 :     Thorium
 U   .ppm                 :     Uranium
~A DEPT     CAL          CGR          CNL          DEN          AC           GR            K           PE         PERM          POR         PORF         PORW         RAL1         RAL2         RAL3     RAL4         RAL5         RTHK         RTHU          RUK          SGR           SH           SP           SW         SWIR           TH            U  
# ...
   1759.200      6.000    102.947     49.293      0.000     89.326    112.287      4.297      0.002      1.181      8.741      8.741      8.741      1.056      2.291      3.299      4.284      4.732      2.494     35.707      0.070    105.443     40.274     40.603    100.000     77.104     10.719      0.300
   1759.300      6.000    103.673     48.731      0.000     89.516    113.885      4.301      0.002      0.669      7.682      7.682      7.682      1.070      2.261      3.206      4.161      4.558      2.499     35.981      0.069    106.016     43.939     40.327    100.000     79.631     10.748      0.299
   1759.400      6.000    103.811     50.067      0.000     89.344    115.815      4.306      0.001      0.272      6.260      6.260      6.260      1.076      2.244      3.158      4.086      4.468      2.514     37.459      0.067    106.097     48.316     40.036    100.000     82.533     10.823      0.289
   1759.500      6.000    103.733     52.011      0.000     89.104    117.036      4.312      0.001      0.010      0.010      0.010      0.010      1.082      2.260      3.197      4.152      4.547      2.537     39.857      0.064    105.983     50.293     39.770    100.000    100.000     10.939      0.275
   1759.600      6.000    103.855     52.653      0.000     88.796    116.310      4.321      0.001      0.273      6.267      6.267      6.267      1.075      2.294      3.289      4.301      4.737      2.579     43.867      0.059    105.986     47.098     39.579    100.000     82.387     11.143      0.255
   1759.700      6.000    105.198     50.976      0.000     88.238    115.769      4.333      0.001      0.198      5.826      5.826      5.826      1.055      2.324      3.394      4.444      4.917      2.639     49.351      0.054    107.105     47.567     39.502    100.000     83.110     11.435      0.233
   1759.800      6.000    107.393     47.357      0.000     87.732    117.936      4.347      0.001      0.010      0.010      0.010      0.010      1.036      2.351      3.486      4.525      5.024      2.711     55.658      0.049    109.025     54.530     39.539    100.000    100.000     11.785      0.212
   1759.900      6.000    110.875     43.182      0.000     87.279    122.267      4.364      0.001      0.010      0.010      0.010      0.010      1.020      2.366      3.551      4.548      5.036      2.799     62.669      0.045    112.220     68.306     39.648    100.000    100.000     12.217      0.196
   1760.000      6.000    114.673     39.620      0.000     87.147    127.697      4.379      0.002      0.010      0.010      0.010      0.010      1.015      2.369      3.608      4.553      5.031      2.892     67.150      0.043    115.796     88.037     39.755    100.000    100.000     12.664      0.189
   1760.100      6.000    118.310     37.069      0.000     87.015    131.950      4.391      0.002      0.010      0.010      0.010      0.010      1.025      2.393      3.695      4.609      5.080      2.984     69.311      0.043    119.289     99.900     39.787    100.000    100.000     13.105      0.189
   1760.200      6.000    120.695     35.411      0.000     86.884    132.456      4.394      0.002      0.010      0.010      0.010      0.010      1.050      2.456      3.796      4.694      5.164      3.070     66.483      0.046    121.742     99.839     39.700    100.000    100.000     13.487      0.203
   1760.300      6.000    120.988     34.678      0.000     86.999    130.026      4.381      0.002      0.010      0.010      0.010      0.010      1.082      2.531      3.843      4.717      5.190      3.144     61.646      0.051    122.423     88.310     39.497    100.000    100.000     13.773      0.225
   1760.400      6.000    119.926     35.022      0.000     87.149    127.041      4.359      0.002      0.010      0.010      0.010      0.010      1.116      2.591      3.800      4.634      5.117      3.209     55.942      0.058    121.890     77.117     39.221    100.000    100.000     13.987      0.251
   1760.500      6.000    117.075     36.277      0.000     87.335    124.775      4.319      0.002      0.010      0.010      0.010      0.010      1.161      2.647      3.718      4.521      5.014      3.260     50.312      0.065    119.570     70.685     38.933    100.000    100.000     14.078      0.281
   1760.600      6.000    114.087     38.056      0.000     87.360    123.193      4.271      0.002      0.010      0.010      0.010      0.010      1.222      2.723      3.664      4.460      4.926      3.301     45.290      0.073    116.837     65.608     38.689    100.000    100.000     14.095      0.313
   1760.700      6.000    111.102     40.349      0.000     87.409    120.409      4.219      0.002      0.010      0.010      0.010      0.010      1.276      2.778      3.607      4.385      4.805      3.336     40.732      0.082    113.942     55.903     38.525    100.000    100.000     14.074      0.346
   1760.800      6.000    108.381     43.619      0.000     87.483    116.233      4.170      0.001      0.010      0.010      0.010      0.010      1.306      2.775      3.531      4.280      4.659      3.365     36.983      0.091    111.131     45.484     38.459    100.000    100.000     14.032      0.381
   1760.900      6.000    106.357     48.104      0.000     87.428    112.471      4.133      0.001      0.010      0.010      0.010      0.010      1.307      2.746      3.499      4.238      4.631      3.393     33.883      0.101    109.203     38.359     38.496    100.000    100.000     14.022      0.415
   1761.000      6.000    104.940     52.982      0.000     87.219    110.185      4.106      0.001      0.010      0.010      0.010      0.010      1.290      2.740      3.571      4.357      4.808      3.420     31.232      0.110    108.038     34.933     38.628    100.000    100.000     14.041      0.450
   1761.100      6.000    104.755     56.329      0.000     86.856    109.809      4.098      0.001      0.010      0.010      0.010      0.010      1.279      2.763      3.725      4.598      5.125      3.445     29.266      0.118    108.417     35.261     38.837    100.000    100.000     14.118      0.483
   1761.200      6.000    105.741     56.476      0.000     86.340    111.701      4.105      0.001      0.010      0.010      0.010      0.010      1.265      2.783      3.860      4.807      5.389      3.469     27.817      0.125    110.002     40.058     39.092    100.000    100.000     14.238      0.513
   1761.300      6.000    107.476     53.168      0.000     85.751    115.782      4.119      0.001      0.010      0.010      0.010      0.010      1.258      2.798      3.954      4.934      5.526      3.491     26.699      0.131    112.242     50.183     39.354    100.000    100.000     14.380      0.539
   1761.400      6.000    110.190     47.835      0.000     85.089    121.767      4.140      0.001      0.010      0.010      0.010      0.010      1.258      2.805      4.014      4.981      5.567      3.512     26.020      0.135    115.018     68.129     39.578    100.000    100.000     14.540      0.559
   1761.500      6.000    112.662     42.546      0.000     84.511    127.048      4.157      0.001      0.010      0.010      0.010      0.010      1.252      2.803      4.041      4.960      5.542      3.532     25.543      0.138    117.274     83.414     39.717    100.000    100.000     14.683      0.575
   1761.600      6.000    114.634     38.711      0.000     84.179    129.285      4.171      0.001      0.010      0.010      0.010      0.010      1.242      2.808      4.027      4.903      5.487      3.550     25.159      0.141    118.954     89.385     39.738    100.000    100.000     14.806      0.589
   1761.700      6.000    115.024     36.636      0.000     84.091    129.337      4.174      0.001      0.010      0.010      0.010      0.010      1.230      2.806      3.969      4.810      5.378      3.564     24.794      0.144    119.221     87.892     39.619    100.000    100.000     14.878      0.600
