~Version Information
 VERS.                 2.0:   CWLS Log ASCII Standard - VERSION 2.0
 WRAP.                  NO:   One line per depth step
~Well Information Block
#MNEM.UNIT         DATA            DESCRIPTION OF MNEMONIC
#---------    -------------   -------------------------------
 STRT.M            1057.200:   START DEPTH
 STOP.M            2380.000:   STOP DEPTH
 STEP.M               0.100:   STEP DEPTH
 NULL.           -99999.000:   NULL VALUE
 COMP.                    :   COMPANY
 WELL.          Zakiganj-1:   Well
 FLD .                    :   FIELD
 LOC .                    :   Location
 CNTY.                    :   County
 STAT.                    :   State
 CTRY.                    :   Country
 SRVC.        CNPC Logging:   Service Company
 DATE.          21/04/2021:   Date
 API .                    :   API Number
~Curve Information Block
#MNEM.UNIT      API CODE             CURVE DESCRIPTION
#---------    -------------   ------------------------------
 DEPT.M                   :     DEPTH
 CAL.in                   :     Density caliper
 CGR .API                 :     Gamma ray minus uranium
 CNL .%                   :     Compensated neutron
 DEN .g/cm3               :     Bulk Density 
 AC .us/ft                :     Acoustic
 GR  .API                 :     Gamma Ray
 K   .%                   :     Potassium
 PE  .b/e                 :     Photoelectric factor
 PERM.mD                  :     Permeability
 POR .%                   :     Porosity
 PORF.%                   :     Porosity of water
 PORW.%                   :     Porosity of flush zone
 RAL1.ohmm                :     Array laterlog
 RAL2.ohmm                :     Array laterlog
 RAL3.ohmm                :     Array laterlog
 RAL4.ohmm                :     Array laterlog
 RAL5.ohmm                :     Array laterlog
 RTHK.none                :     Ratio of TH and K
 RTHU.none                :     Ratio of TH and U
 RUK .none                :     Ratio of U and K
 SGR .API                 :     Spectrum Gamma Ray
 SH  .%                   :     Shale content
 SP  .mV                  :     Spontaneous potential
 SW  .%                   :     Water saturation
 SWIR.%                   :     Irreducible water Saturation
 TH  .ppm                 :     Thorium
 U   .ppm                 :     Uranium
~A DEPT     CAL          CGR          CNL          DEN          AC           GR            K           PE         PERM          POR         PORF         PORW         RAL1         RAL2         RAL3     RAL4         RAL5         RTHK         RTHU          RUK          SGR           SH           SP           SW         SWIR           TH            U  
   1057.200      6.000     41.707     63.973      0.000 -99999.000     48.407      2.407      0.000      0.010      0.010    100.000    100.000      4.023      3.474      2.497      2.097      1.732      2.006      7.919      0.253     46.826      0.000     35.435    100.000    100.000      4.828      0.610
   1057.300      6.000     42.797     63.973      0.000 -99999.000     46.579      2.432      0.000      0.010      0.010    100.000    100.000      4.023      3.474      2.497      2.097      1.732      1.982      8.910      0.224     46.973      0.000     35.239    100.000    100.000      4.818      0.544
   1057.400      6.000     43.931     63.973      0.000 -99999.000     47.715      2.456      0.000      0.010      0.010    100.000    100.000      4.023      3.474      2.497      2.097      1.732      1.960     10.166      0.195     47.275      0.000     35.004    100.000    100.000      4.814      0.478
   1057.500      6.000     45.108     63.449      0.000 -99999.000     49.942      2.479      0.000      0.010      0.010    100.000    100.000      4.023      3.474      2.497      2.097      1.732      1.942     11.689      0.166     47.732      0.000     34.728    100.000    100.000      4.814      0.412
   1057.600      6.000     45.893     63.049      0.000 -99999.000     51.812      2.500      0.000      0.010      0.010    100.000    100.000      4.023      3.474      2.497      2.097      1.732      1.926     13.623      0.143     48.206      0.000     34.413    100.000    100.000      4.814      0.357
   1057.700      6.000     46.419     63.306      0.000 -99999.000     52.997      2.517      0.000      0.010      0.010    100.000    100.000      4.023      3.474      2.497      2.097      1.732      1.912     15.499      0.124     48.538      0.000     34.061    100.000    100.000      4.812      0.312
   1057.800      6.000     46.686     63.964      0.000 -99999.000     53.416      2.531      0.000      0.010      0.010    100.000    100.000      4.023      3.474      2.497      2.097      1.732      1.899     17.313      0.110     48.728      0.000     33.677    100.000    100.000      4.807      0.278
   1057.900      6.000     46.815     64.628      0.000 -99999.000     53.991      2.537      0.000      0.010      0.010    100.000    100.000      4.023      3.474      2.497      2.097      1.732      1.899     18.304      0.104     48.740      0.000     33.269    100.000    100.000      4.817      0.264
   1058.000      6.000     46.985     65.161      0.000 -99999.000     53.964      2.537      0.000      0.010      0.010    100.000    100.000      4.023      3.474      2.497      2.097      1.732      1.911     18.896      0.101     48.780      0.000     32.852    100.000    100.000      4.848      0.257
   1058.100      6.000     47.197     65.299      0.000 -99999.000     53.155      2.531      0.000      0.010      0.010    100.000    100.000      4.023      3.474      2.497      2.097      1.732      1.936     19.093      0.101     48.849      0.000     32.440    100.000    100.000      4.899      0.257
   1058.200      6.000     47.401     66.348      0.000 -99999.000     52.460      2.512      0.000      0.010      0.010    100.000    100.000      4.023      3.474      2.497      2.097      1.732      1.997     19.085      0.105     49.242      0.000     32.050    100.000    100.000      5.015      0.263
   1058.300      6.000     47.654     67.279      0.000 -99999.000     51.881      2.487      0.000      0.010      0.010    100.000    100.000      4.023      3.474      2.497      2.097      1.732      2.076     19.209      0.108     49.720      0.000     31.692    100.000    100.000      5.161      0.269
   1058.400      6.000     47.955     66.507      0.000 -99999.000     51.356      2.457      0.000      0.010      0.010    100.000    100.000      4.023      3.474      2.497      2.097      1.732      2.173     19.465      0.112     50.281      0.000     31.373    100.000    100.000      5.339      0.274
   1058.500      6.000     48.279     65.187      0.000 -99999.000     51.200      2.420      0.000      0.010      0.010    100.000    100.000      4.023      3.474      2.497      2.097      1.732      2.293     20.198      0.113     50.721      0.000     31.089    100.000    100.000      5.548      0.275
   1058.600      6.000     48.606     64.122      0.000 -99999.000     51.291      2.384      0.000      0.010      0.010    100.000    100.000      4.023      3.474      2.497      2.097      1.732      2.411     21.182      0.114     51.026      0.000     30.835    100.000    100.000      5.745      0.271
   1058.700      6.000     48.936     63.975      0.000 -99999.000     51.691      2.348      0.000      0.010      0.010    100.000    100.000      4.023      3.474      2.497      2.097      1.732      2.527     22.409      0.113     51.199      0.000     30.603    100.000    100.000      5.932      0.265
   1058.800      6.000     49.317     64.104      0.000 -99999.000     52.065      2.316      0.000      0.010      0.010    100.000    100.000      4.023      3.474      2.497      2.097      1.732      2.615     23.707      0.110     51.238      0.000     30.386    100.000    100.000      6.054      0.256
   1058.900      6.000     49.384     64.760      0.000 -99999.000     52.937      2.288      0.000      0.010      0.010    100.000    100.000      4.023      3.474      2.497      2.097      1.732      2.681     24.522      0.109     51.029      0.000     30.178    100.000    100.000      6.135      0.250
   1059.000      6.000     49.144     66.077      0.000 -99999.000     54.062      2.265      0.000      0.010      0.010    100.000    100.000      4.023      3.474      2.497      2.097      1.732      2.726     24.854      0.110     50.578      0.000     29.979    100.000    100.000      6.175      0.248
   1059.100      6.000     48.318     66.359      0.000 -99999.000     55.083      2.251      0.000      0.010      0.010    100.000    100.000      4.023      3.474      2.497      2.097      1.732      2.731     23.502      0.116     49.899      0.000     29.789    100.000    100.000      6.148      0.262
   1059.200      6.000     47.404     65.709      0.000 -99999.000     54.886      2.242      0.000      0.010      0.010    100.000    100.000      4.023      3.474      2.497      2.097      1.732      2.721     21.698      0.126     49.230      0.000     29.607    100.000    100.000      6.101      0.283
   1059.300      6.000     46.410     65.176      0.000 -99999.000     52.831      2.240      0.000      0.010      0.010    100.000    100.000      4.023      3.474      2.497      2.097      1.732      2.695     19.460      0.139     48.578      0.000     29.430    100.000    100.000      6.036      0.310
   1059.400      6.000     45.719     65.168      0.000 -99999.000     50.758      2.249      0.000      0.010      0.010    100.000    100.000      4.023      3.474      2.497      2.097      1.732      2.649     17.539      0.152     48.469      0.000     29.247    100.000    100.000      5.957      0.341
   1059.500      6.000     45.446     65.168      0.000 -99999.000     50.315      2.265      0.000      0.010      0.010    100.000    100.000      4.023      3.475      2.497      2.098      1.732      2.594     16.026      0.162     48.684      0.000     29.044    100.000    100.000      5.875      0.367
   1059.600      6.000     45.582     65.168      0.000 -99999.000     50.807      2.288      0.000      0.010      0.010    100.000    100.000      4.024      3.475      2.498      2.099      1.732      2.530     14.912      0.170     49.211      0.000     28.810    100.000    100.000      5.789      0.388
   1059.700      6.000     46.385     62.818      0.000 -99999.000     51.162      2.321      0.000      0.010      0.010    100.000    100.000      4.024      3.476      2.499      2.100      1.733      2.454     14.538      0.169     49.934      0.000     28.541    100.000    100.000      5.693      0.392
