~Version Information
 VERS.                 2.0:   CWLS Log ASCII Standard - VERSION 2.0
 WRAP.                  NO:   One line per depth step
~Well Information Block
#MNEM.UNIT         DATA            DESCRIPTION OF MNEMONIC
#---------    -------------   -------------------------------
 STRT.M            1057.200:   START DEPTH
 STOP.M            2380.000:   STOP DEPTH
 STEP.M               0.100:   STEP DEPTH
 NULL.           -99999.000:   NULL VALUE
 COMP.                    :   COMPANY
 WELL.          Zakiganj-1:   Well
 FLD .                    :   FIELD
 LOC .                    :   Location
 CNTY.                    :   County
 STAT.                    :   State
 CTRY.                    :   Country
 SRVC.        CNPC Logging:   Service Company
 DATE.          21/04/2021:   Date
 API .                    :   API Number
~Curve Information Block
#MNEM.UNIT      API CODE             CURVE DESCRIPTION
#---------    -------------   ------------------------------
 DEPT.M                   :     DEPTH
 CAL.in                   :     Density caliper
 CGR .API                 :     Gamma ray minus uranium
 CNL .%                   :     Compensated neutron
 DEN .g/cm3               :     Bulk Density 
 AC .us/ft                :     Acoustic
 GR  .API                 :     Gamma Ray
 K   .%                   :     Potassium
 PE  .b/e                 :     Photoelectric factor
 PERM.mD                  :     Permeability
 POR .%                   :     Porosity
 PORF.%                   :     Porosity of water
 PORW.%                   :     Porosity of flush zone
 RAL1.ohmm                :     Array laterlog
 RAL2.ohmm                :     Array laterlog
 RAL3.ohmm                :     Array laterlog
 RAL4.ohmm                :     Array laterlog
 RAL5.ohmm                :     Array laterlog
 RTHK.none                :     Ratio of TH and K
 RTHU.none                :     Ratio of TH and U
 RUK .none                :     Ratio of U and K
 SGR .API                 :     Spectrum Gamma Ray
 SH  .%                   :     Shale content
 SP  .mV                  :     Spontaneous potential
 SW  .%                   :     Water saturation
 SWIR.%                   :     Irreducible water Saturation
 TH  .ppm                 :     Thorium
 U   .ppm                 :     Uranium
~A DEPT     CAL          CGR          CNL          DEN          AC           GR            K           PE         PERM          POR         PORF         PORW         RAL1         RAL2         RAL3     RAL4         RAL5         RTHK         RTHU          RUK          SGR           SH           SP           SW         SWIR           TH            U  
# ...
   1936.000     12.579    124.032     34.554      2.602     84.593    137.981      4.434     18.522      0.010      0.010      0.010      0.010      2.062      5.058      6.044      6.261      6.377      3.566     36.489      0.098    127.482     99.900     26.488    100.000    100.000     15.813      0.433
   1936.100     12.670    122.954     32.687      2.622     84.777    138.273      4.443     18.374      0.010      0.010      0.010      0.010      2.079      5.057      5.996      6.196      6.305      3.563     35.757      0.100    126.817     99.900     26.486    100.000    100.000     15.829      0.443
   1936.200     12.863    121.724     31.387      2.616     84.945    137.009      4.437     18.149      0.010      0.010      0.010      0.010      2.113      5.074      5.942      6.103      6.215      3.555     35.367      0.101    125.640     99.900     26.441    100.000    100.000     15.775      0.446
   1936.300     13.123    120.508     31.439      2.587     85.096    134.280      4.429     18.294      0.010      0.010      0.010      0.010      2.152      5.110      5.883      5.993      6.118      3.546     35.091      0.101    124.254     93.260     26.365    100.000    100.000     15.704      0.448
   1936.400     13.411    119.305     33.094      2.535     85.062    130.773      4.418     18.622      0.010      0.010      0.010      0.010      2.175      5.141      5.824      5.899      6.015      3.534     34.931      0.101    122.657     80.034     26.275    100.000    100.000     15.616      0.447
   1936.500     13.637    118.196     35.722      2.450     84.970    127.568      4.414     18.943      0.010      0.010      0.010      0.010      2.182      5.192      5.846      5.911      6.009      3.519     34.662      0.102    121.287     70.361     26.189    100.000    100.000     15.530      0.448
   1936.600     13.748    117.460     38.110      2.338     84.821    125.473      4.414     19.326      0.010      0.010      0.010      0.010      2.200      5.326      6.023      6.094      6.185      3.502     34.172      0.102    120.475     65.074     26.122    100.000    100.000     15.454      0.452
   1936.700     13.803    117.102     39.322      2.242     84.571    124.385      4.418     19.759      0.010      0.010      0.010      0.010      2.224      5.486      6.266      6.350      6.463      3.483     33.456      0.104    120.229     62.390     26.076    100.000    100.000     15.390      0.460
   1936.800     13.916    117.508     39.265      2.206     84.348    124.135      4.430     20.221      0.010      0.010      0.010      0.010      2.221      5.540      6.419      6.518      6.658      3.466     32.383      0.107    121.074     62.664     26.048    100.000    100.000     15.351      0.474
   1936.900     14.111    118.128     38.588      2.237     84.153    124.874      4.442     20.553      0.010      0.010      0.010      0.010      2.188      5.474      6.412      6.528      6.685      3.450     31.351      0.110    122.111     65.060     26.033    100.000    100.000     15.325      0.489
   1937.000     14.188    118.959     37.935      2.303     84.151    125.426      4.455     20.674      0.010      0.010      0.010      0.010      2.143      5.336      6.285      6.404      6.580      3.436     30.362      0.113    123.340     65.762     26.026    100.000    100.000     15.310      0.504
   1937.100     13.996    119.681     37.380      2.369     84.222    125.462      4.465     20.520      0.010      0.010      0.010      0.010      2.119      5.222      6.158      6.260      6.456      3.430     29.803      0.115    124.024     66.370     26.022    100.000    100.000     15.312      0.514
   1937.200     13.632    120.179     36.517      2.424     84.366    126.442      4.470     19.987      0.010      0.010      0.010      0.010      2.106      5.149      6.078      6.185      6.356      3.427     29.480      0.116    124.377     70.490     26.016    100.000    100.000     15.317      0.520
   1937.300     13.333    120.452     35.157      2.475     84.704    128.961      4.471     18.985      0.010      0.010      0.010      0.010      2.104      5.110      6.037      6.144      6.312      3.428     29.393      0.117    124.398     80.271     26.001    100.000    100.000     15.325      0.521
   1937.400     13.232    120.491     33.775      2.521     85.074    132.429      4.463     17.721      0.010      0.010      0.010      0.010      2.107      5.087      5.991      6.099      6.269      3.436     29.445      0.117    124.327     92.878     25.966    100.000    100.000     15.335      0.521
   1937.500     13.212    120.466     32.992      2.556     85.477    134.863      4.450     16.642      0.010      0.010      0.010      0.010      2.109      5.070      5.904      6.001      6.184      3.448     29.265      0.118    124.248     99.900     25.901    100.000    100.000     15.343      0.524
   1937.600     13.125    120.377     32.951      2.574     85.852    134.628      4.433     15.787      0.010      0.010      0.010      0.010      2.099      5.024      5.777      5.876      6.046      3.463     28.851      0.120    124.160     95.765     25.799    100.000    100.000     15.349      0.532
   1937.700     13.085    119.765     33.284      2.568     86.213    132.379      4.410     15.187      0.010      0.010      0.010      0.010      2.088      4.961      5.654      5.756      5.904      3.481     27.716      0.126    123.737     87.447     25.665    100.000    100.000     15.353      0.554
   1937.800     13.249    118.797     33.631      2.534     86.560    130.737      4.388     14.988      0.010      0.010      0.010      0.010      2.083      4.907      5.582      5.683      5.800      3.499     26.432      0.133    123.060     82.121     25.513    100.000    100.000     15.353      0.582
   1937.900     13.594    117.473     33.945      2.485     86.730    129.920      4.365     15.255      0.010      0.010      0.010      0.010      2.085      4.895      5.589      5.685      5.776      3.517     24.998      0.141    122.128     80.151     25.367    100.000    100.000     15.350      0.614
   1938.000     13.949    115.903     34.325      2.437     86.821    129.653      4.346     15.912      0.010      0.010      0.010      0.010      2.098      4.916      5.628      5.720      5.788      3.530     23.769      0.149    121.027     79.032     25.246    100.000    100.000     15.341      0.646
   1938.100     14.099    114.586     34.787      2.387     86.833    128.956      4.330     16.768      0.010      0.010      0.010      0.010      2.096      4.924      5.643      5.731      5.782      3.540     22.773      0.156    120.106     75.956     25.164    100.000    100.000     15.331      0.674
   1938.200     14.042    113.522     35.282      2.327     86.678    127.342      4.319     17.711      0.010      0.010      0.010      0.010      2.070      4.901      5.642      5.730      5.769      3.547     22.008      0.161    119.366     69.858     25.120    100.000    100.000     15.320      0.696
   1938.300     13.978    113.645     35.834      2.261     86.454    125.632      4.316     18.477      0.010      0.010      0.010      0.010      2.035      4.897      5.715      5.822      5.851      3.548     21.766      0.163    119.477     66.022     25.102    100.000    100.000     15.310      0.703
   1938.400     13.979    114.126     36.360      2.223     86.161    125.710      4.315     18.823      0.010      0.010      0.010      0.010      2.019      4.940      5.869      6.012      6.037      3.545     21.743      0.163    119.836     67.808     25.096    100.000    100.000     15.298      0.704
   1938.500     13.943    114.960     36.544      2.240     85.910    127.714      4.318     18.835      0.010      0.010      0.010      0.010      2.020      4.987      6.017      6.184      6.213      3.540     21.937      0.161    120.439     75.602     25.091    100.000    100.000     15.285      0.697
