~Version Information
 VERS.                 2.0:   CWLS Log ASCII Standard - VERSION 2.0
 WRAP.                  NO:   One line per depth step
~Well Information Block
#MNEM.UNIT         DATA            DESCRIPTION OF MNEMONIC
#---------    -------------   -------------------------------
 STRT.M            1057.200:   START DEPTH
 STOP.M            2380.000:   STOP DEPTH
 STEP.M               0.100:   STEP DEPTH
 NULL.           -99999.000:   NULL VALUE
 COMP.                    :   COMPANY
 WELL.          Zakiganj-1:   Well
 FLD .                    :   FIELD
 LOC .                    :   Location
 CNTY.                    :   County
 STAT.                    :   State
 CTRY.                    :   Country
 SRVC.        CNPC Logging:   Service Company
 DATE.          21/04/2021:   Date
 API .                    :   API Number
~Curve Information Block
#MNEM.UNIT      API CODE             CURVE DESCRIPTION
#---------    -------------   ------------------------------
 DEPT.M                   :     DEPTH
 CAL.in                   :     Density caliper
 CGR .API                 :     Gamma ray minus uranium
 CNL .%                   :     Compensated neutron
 DEN .g/cm3               :     Bulk Density 
 AC .us/ft                :     Acoustic
 GR  .API                 :     Gamma Ray
 K   .%                   :     Potassium
 PE  .b/e                 :     Photoelectric factor
 PERM.mD                  :     Permeability
 POR .%                   :     Porosity
 PORF.%                   :     Porosity of water
 PORW.%                   :     Porosity of flush zone
 RAL1.ohmm                :     Array laterlog
 RAL2.ohmm                :     Array laterlog
 RAL3.ohmm                :     Array laterlog
 RAL4.ohmm                :     Array laterlog
 RAL5.ohmm                :     Array laterlog
 RTHK.none                :     Ratio of TH and K
 RTHU.none                :     Ratio of TH and U
 RUK .none                :     Ratio of U and K
 SGR .API                 :     Spectrum Gamma Ray
 SH  .%                   :     Shale content
 SP  .mV                  :     Spontaneous potential
 SW  .%                   :     Water saturation
 SWIR.%                   :     Irreducible water Saturation
 TH  .ppm                 :     Thorium
 U   .ppm                 :     Uranium
~A DEPT     CAL          CGR          CNL          DEN          AC           GR            K           PE         PERM          POR         PORF         PORW         RAL1         RAL2         RAL3     RAL4         RAL5         RTHK         RTHU          RUK          SGR           SH           SP           SW         SWIR           TH            U  
# ...
   2375.400     13.185 -99999.000     31.290      2.416     64.434 -99999.000 -99999.000      7.661      0.010      0.010    100.000    100.000      2.353      6.477      7.992      8.110      8.266 -99999.000 -99999.000 -99999.000 -99999.000      0.000 -99999.000    100.000    100.000 -99999.000 -99999.000
   2375.500     12.829 -99999.000     30.936      2.489     64.434 -99999.000 -99999.000      7.979      0.010      0.010    100.000    100.000      2.367      6.488      7.991      8.117      8.254 -99999.000 -99999.000 -99999.000 -99999.000      0.000 -99999.000    100.000    100.000 -99999.000 -99999.000
   2375.600     12.597 -99999.000     30.504      2.555     64.434 -99999.000 -99999.000      8.173      0.010      0.010    100.000    100.000      2.361      6.455      7.943      8.064      8.229 -99999.000 -99999.000 -99999.000 -99999.000      0.000 -99999.000    100.000    100.000 -99999.000 -99999.000
   2375.700     12.544 -99999.000     29.974      2.587     64.434 -99999.000 -99999.000      8.431      0.010      0.010    100.000    100.000      2.355      6.412      7.898      8.031      8.190 -99999.000 -99999.000 -99999.000 -99999.000      0.000 -99999.000    100.000    100.000 -99999.000 -99999.000
   2375.800     12.571 -99999.000     29.392      2.586     64.434 -99999.000 -99999.000      8.467      0.010      0.010    100.000    100.000      2.347      6.400      7.873      8.006      8.183 -99999.000 -99999.000 -99999.000 -99999.000      0.000 -99999.000    100.000    100.000 -99999.000 -99999.000
   2375.900     12.590 -99999.000     28.819      2.566     64.434 -99999.000 -99999.000      8.277      0.010      0.010    100.000    100.000      2.348      6.385      7.867      8.001      8.177 -99999.000 -99999.000 -99999.000 -99999.000      0.000 -99999.000    100.000    100.000 -99999.000 -99999.000
   2376.000     12.587 -99999.000     28.357      2.537     64.434 -99999.000 -99999.000      7.864      0.010      0.010    100.000    100.000      2.353      6.403      7.877      8.014      8.184 -99999.000 -99999.000 -99999.000 -99999.000      0.000 -99999.000    100.000    100.000 -99999.000 -99999.000
   2376.100     12.565 -99999.000     28.133      2.508     64.434 -99999.000 -99999.000      7.204      0.010      0.010    100.000    100.000      2.359      6.422      7.902      8.043      8.199 -99999.000 -99999.000 -99999.000 -99999.000      0.000 -99999.000    100.000    100.000 -99999.000 -99999.000
   2376.200     12.537 -99999.000     28.216      2.490     64.434 -99999.000 -99999.000      6.357      0.010      0.010    100.000    100.000      2.352      6.430      7.895      8.042      8.178 -99999.000 -99999.000 -99999.000 -99999.000      0.000 -99999.000    100.000    100.000 -99999.000 -99999.000
   2376.300     12.536 -99999.000     28.551      2.497     64.434 -99999.000 -99999.000      5.585      0.010      0.010    100.000    100.000      2.328      6.354      7.805      7.931      8.055 -99999.000 -99999.000 -99999.000 -99999.000      0.000 -99999.000    100.000    100.000 -99999.000 -99999.000
   2376.400     12.580 -99999.000     29.046      2.532     64.434 -99999.000 -99999.000      5.157      0.010      0.010    100.000    100.000      2.286      6.205      7.575      7.674      7.784 -99999.000 -99999.000 -99999.000 -99999.000      0.000 -99999.000    100.000    100.000 -99999.000 -99999.000
   2376.500     12.638 -99999.000     29.472      2.570     64.434 -99999.000 -99999.000      4.965      0.010      0.010    100.000    100.000      2.260      6.066      7.381      7.457      7.558 -99999.000 -99999.000 -99999.000 -99999.000      0.000 -99999.000    100.000    100.000 -99999.000 -99999.000
   2376.600     12.689 -99999.000     29.564      2.587     64.434 -99999.000 -99999.000      4.925      0.010      0.010    100.000    100.000      2.273      6.088      7.401      7.466      7.568 -99999.000 -99999.000 -99999.000 -99999.000      0.000 -99999.000    100.000    100.000 -99999.000 -99999.000
   2376.700     12.762 -99999.000     29.287      2.579     64.434 -99999.000 -99999.000      4.991      0.010      0.010    100.000    100.000      2.273      6.088      7.401      7.466      7.568 -99999.000 -99999.000 -99999.000 -99999.000      0.000 -99999.000    100.000    100.000 -99999.000 -99999.000
   2376.800     12.861 -99999.000     28.969      2.561     64.434 -99999.000 -99999.000      5.078      0.010      0.010    100.000    100.000      2.273      6.088      7.401      7.466      7.568 -99999.000 -99999.000 -99999.000 -99999.000      0.000 -99999.000    100.000    100.000 -99999.000 -99999.000
   2376.900     12.911 -99999.000     29.016      2.549     64.434 -99999.000 -99999.000      5.199      0.010      0.010    100.000    100.000      2.273      6.088      7.401      7.466      7.568 -99999.000 -99999.000 -99999.000 -99999.000      0.000 -99999.000    100.000    100.000 -99999.000 -99999.000
   2377.000     12.855 -99999.000     29.521      2.560     64.434 -99999.000 -99999.000      5.434      0.010      0.010    100.000    100.000 -99999.000 -99999.000 -99999.000 -99999.000 -99999.000 -99999.000 -99999.000 -99999.000 -99999.000      0.000 -99999.000    100.000    100.000 -99999.000 -99999.000
   2377.100     12.708 -99999.000     30.181      2.591     64.434 -99999.000 -99999.000      5.686      0.010      0.010    100.000    100.000 -99999.000 -99999.000 -99999.000 -99999.000 -99999.000 -99999.000 -99999.000 -99999.000 -99999.000      0.000 -99999.000    100.000    100.000 -99999.000 -99999.000
   2377.200     12.565 -99999.000     30.552      2.627     64.434 -99999.000 -99999.000      5.955      0.010      0.010    100.000    100.000 -99999.000 -99999.000 -99999.000 -99999.000 -99999.000 -99999.000 -99999.000 -99999.000 -99999.000      0.000 -99999.000    100.000    100.000 -99999.000 -99999.000
   2377.300     12.506 -99999.000     30.419      2.652     64.434 -99999.000 -99999.000      6.211      0.010      0.010    100.000    100.000 -99999.000 -99999.000 -99999.000 -99999.000 -99999.000 -99999.000 -99999.000 -99999.000 -99999.000      0.000 -99999.000    100.000    100.000 -99999.000 -99999.000
   2377.400     12.509 -99999.000     29.817      2.665     64.434 -99999.000 -99999.000      6.417      0.010      0.010    100.000    100.000 -99999.000 -99999.000 -99999.000 -99999.000 -99999.000 -99999.000 -99999.000 -99999.000 -99999.000      0.000 -99999.000    100.000    100.000 -99999.000 -99999.000
   2377.500     12.510 -99999.000     28.921      2.674     64.434 -99999.000 -99999.000      6.550      0.010      0.010    100.000    100.000 -99999.000 -99999.000 -99999.000 -99999.000 -99999.000 -99999.000 -99999.000 -99999.000 -99999.000      0.000 -99999.000    100.000    100.000 -99999.000 -99999.000
   2377.600     12.509 -99999.000     27.981      2.683     64.434 -99999.000 -99999.000      6.640      0.010      0.010    100.000    100.000 -99999.000 -99999.000 -99999.000 -99999.000 -99999.000 -99999.000 -99999.000 -99999.000 -99999.000      0.000 -99999.000    100.000    100.000 -99999.000 -99999.000
   2377.700     12.506 -99999.000     27.275      2.689     64.434 -99999.000 -99999.000      6.695      0.010      0.010    100.000    100.000 -99999.000 -99999.000 -99999.000 -99999.000 -99999.000 -99999.000 -99999.000 -99999.000 -99999.000      0.000 -99999.000    100.000    100.000 -99999.000 -99999.000
   2377.800     12.505 -99999.000     26.924      2.687     64.434 -99999.000 -99999.000      6.701      0.010      0.010    100.000    100.000 -99999.000 -99999.000 -99999.000 -99999.000 -99999.000 -99999.000 -99999.000 -99999.000 -99999.000      0.000 -99999.000    100.000    100.000 -99999.000 -99999.000
   2377.900     12.505 -99999.000     26.891      2.681 -99987.469 -99999.000 -99999.000      6.678      0.010      0.010    100.000    100.000 -99999.000 -99999.000 -99999.000 -99999.000 -99999.000 -99999.000 -99999.000 -99999.000 -99999.000      0.000 -99999.000    100.000    100.000 -99999.000 -99999.000
