~Version Information
 VERS.                 2.0:   CWLS Log ASCII Standard - VERSION 2.0
 WRAP.                  NO:   One line per depth step
~Well Information Block
#MNEM.UNIT         DATA            DESCRIPTION OF MNEMONIC
#---------    -------------   -------------------------------
 STRT.M            1057.200:   START DEPTH
 STOP.M            2380.000:   STOP DEPTH
 STEP.M               0.100:   STEP DEPTH
 NULL.           -99999.000:   NULL VALUE
 COMP.                    :   COMPANY
 WELL.          Zakiganj-1:   Well
 FLD .                    :   FIELD
 LOC .                    :   Location
 CNTY.                    :   County
 STAT.                    :   State
 CTRY.                    :   Country
 SRVC.        CNPC Logging:   Service Company
 DATE.          21/04/2021:   Date
 API .                    :   API Number
~Curve Information Block
#MNEM.UNIT      API CODE             CURVE DESCRIPTION
#---------    -------------   ------------------------------
 DEPT.M                   :     DEPTH
 CAL.in                   :     Density caliper
 CGR .API                 :     Gamma ray minus uranium
 CNL .%                   :     Compensated neutron
 DEN .g/cm3               :     Bulk Density 
 AC .us/ft                :     Acoustic
 GR  .API                 :     Gamma Ray
 K   .%                   :     Potassium
 PE  .b/e                 :     Photoelectric factor
 PERM.mD                  :     Permeability
 POR .%                   :     Porosity
 PORF.%                   :     Porosity of water
 PORW.%                   :     Porosity of flush zone
 RAL1.ohmm                :     Array laterlog
 RAL2.ohmm                :     Array laterlog
 RAL3.ohmm                :     Array laterlog
 RAL4.ohmm                :     Array laterlog
 RAL5.ohmm                :     Array laterlog
 RTHK.none                :     Ratio of TH and K
 RTHU.none                :     Ratio of TH and U
 RUK .none                :     Ratio of U and K
 SGR .API                 :     Spectrum Gamma Ray
 SH  .%                   :     Shale content
 SP  .mV                  :     Spontaneous potential
 SW  .%                   :     Water saturation
 SWIR.%                   :     Irreducible water Saturation
 TH  .ppm                 :     Thorium
 U   .ppm                 :     Uranium
~A DEPT     CAL          CGR          CNL          DEN          AC           GR            K           PE         PERM          POR         PORF         PORW         RAL1         RAL2         RAL3     RAL4         RAL5         RTHK         RTHU          RUK          SGR           SH           SP           SW         SWIR           TH            U  
# ...
   1496.600      6.000     88.434     32.940      0.000    101.979     94.374      3.241      0.003     74.733     22.435     22.435     22.435      0.852      1.300      1.321      1.411      1.567      3.101     52.217      0.059     89.727     14.320     36.262    100.000     15.144     10.052      0.193
   1496.700      6.000     88.548     32.688      0.000    101.888     93.892      3.254      0.003     75.477     22.486     22.486     22.486      0.853      1.294      1.317      1.406      1.559      3.125     52.070      0.060     89.829     13.977     36.833    100.000     14.995     10.167      0.195
   1496.800      6.000     88.433     32.627      0.000    101.772     94.641      3.265      0.003     69.777     22.088     22.088     22.088      0.854      1.288      1.317      1.403      1.560      3.146     50.448      0.062     89.773     15.082     37.752    100.000     15.814     10.271      0.204
   1496.900      6.000     88.187     32.892      0.000    101.631     95.324      3.272      0.003     66.854     21.874     21.874     21.874      0.859      1.293      1.322      1.405      1.569      3.167     46.677      0.068     89.683     15.534     38.855    100.000     16.237     10.364      0.223
   1497.000      6.000     87.858     33.460      0.000    101.473     94.088      3.277      0.003     73.696     22.364     22.364     22.364      0.864      1.306      1.328      1.418      1.586      3.192     42.671      0.075     89.572     13.758     39.956    100.000     15.113     10.461      0.247
   1497.100      6.000     87.443     34.139      0.000    101.552     92.311      3.280      0.003     79.957     22.782     22.782     22.782      0.869      1.320      1.338      1.437      1.611      3.220     38.434      0.084     89.441     12.268     40.913    100.000     14.198     10.561      0.275
   1497.200      6.000     86.951     34.694      0.000    101.198     92.792      3.278      0.003     72.745     22.298     22.298     22.298      0.872      1.329      1.349      1.451      1.635      3.259     34.909      0.094     89.332     13.410     41.661    100.000     15.123     10.685      0.308
   1497.300      6.000     86.602     35.011      0.000    101.130     96.104      3.274      0.003     56.851     21.083     21.083     21.083      0.874      1.332      1.354      1.459      1.644      3.306     31.851      0.104     89.330     17.339     42.208    100.000     17.929     10.826      0.341
   1497.400      6.000     86.396     35.091      0.000    101.076    100.429      3.268      0.003     40.527     19.522     19.522     19.522      0.874      1.330      1.355      1.461      1.648      3.361     29.257      0.115     89.434     22.446     42.618    100.000     34.093     10.984      0.375
   1497.500      6.000     86.792     34.864      0.000    101.038    103.091      3.258      0.003     33.614     18.710     18.710     18.710      0.876      1.328      1.357      1.465      1.653      3.430     27.364      0.126     90.019     25.094     42.966    100.000     39.316     11.175      0.410
   1497.600      6.000     87.241     34.195      0.000    101.022    103.558      3.245      0.003     33.756     18.728     18.728     18.728      0.876      1.330      1.361      1.471      1.663      3.505     25.697      0.137     90.647     25.005     43.306    100.000     39.198     11.373      0.444
   1497.700      6.000     87.743     33.113      0.000    101.002    104.214      3.231      0.003     30.517     18.303     18.303     18.303      0.878      1.332      1.364      1.472      1.664      3.584     24.256      0.148     91.316     26.380     43.647    100.000     41.792     11.580      0.477
   1497.800      6.000     87.887     32.005      0.000    100.977    105.632      3.214      0.003     25.626     17.591     17.591     17.591      0.877      1.331      1.362      1.464      1.656      3.663     23.121      0.159     91.719     28.694     43.955    100.000     45.936     11.770      0.510
   1497.900      6.000     87.739     31.427      0.000    100.930    106.255      3.197      0.003     24.728     17.449     17.449     17.449      0.875      1.328      1.354      1.451      1.648      3.732     22.124      0.169     91.890     29.081     44.174    100.000     46.716     11.932      0.540
   1498.000      6.000     87.298     31.712      0.000    100.878    103.366      3.181      0.003     37.324     19.160     19.160     19.160      0.872      1.322      1.341      1.438      1.632      3.793     21.267      0.178     91.831     23.294     44.257    100.000     36.393     12.066      0.567
   1498.100      6.000     86.638     32.711      0.000    100.819     98.494      3.170      0.003     55.114     20.935     20.935     20.935      0.867      1.315      1.324      1.420      1.612      3.822     20.743      0.184     91.481     17.296     44.200    100.000     18.177     12.115      0.584
   1498.200      6.000     86.145     33.836      0.000    100.774     95.323      3.162      0.003     63.862     21.648     21.648     21.648      0.864      1.310      1.316      1.413      1.602      3.832     20.434      0.188     91.145     14.852     44.048    100.000     16.427     12.118      0.593
   1498.300      6.000     85.818     34.465      0.000    100.739     95.226      3.158      0.003     60.918     21.417     21.417     21.417      0.864      1.308      1.317      1.411      1.592      3.824     20.339      0.188     90.821     15.565     43.876    100.000     16.961     12.076      0.594
   1498.400      6.000     85.666     34.351      0.000    100.715     96.453      3.163      0.003     55.835     20.997     20.997     20.997      0.863      1.308      1.325      1.418      1.590      3.784     20.761      0.182     90.440     16.936     43.756    100.000     17.986     11.966      0.577
   1498.500      6.000     85.680     33.742      0.000    100.718     96.799      3.170      0.003     56.082     21.018     21.018     21.018      0.863      1.307      1.332      1.429      1.605      3.735     21.482      0.174     90.141     16.885     43.729    100.000     17.937     11.840      0.552
   1498.600      6.000     85.857     33.130      0.000    100.744     94.141      3.181      0.003     69.835     22.092     22.092     22.092      0.863      1.309      1.337      1.437      1.632      3.678     22.499      0.163     89.923     13.372     43.793    100.000     15.408     11.700      0.520
   1498.700      6.000     86.255     32.869      0.000    100.793     91.335      3.197      0.003     79.379     22.745     22.745     22.745      0.865      1.311      1.342      1.446      1.648      3.619     24.089      0.151     89.919     11.311     43.918    100.000     14.014     11.571      0.482
   1498.800      6.000     86.722     32.962      0.000    100.879     90.533      3.214      0.003     80.992     22.849     22.849     22.849      0.866      1.315      1.346      1.452      1.649      3.565     25.850      0.138     90.025     11.136     44.071    100.000     13.837     11.459      0.445
   1498.900      6.000     87.258     33.148      0.000    100.997     91.827      3.233      0.002     75.078     22.459     22.459     22.459      0.869      1.317      1.349      1.457      1.649      3.516     27.776      0.127     90.240     12.663     44.233    100.000     14.723     11.366      0.409
   1499.000      6.000     87.993     33.074      0.000    101.148     94.171      3.252      0.002     66.607     21.856     21.856     21.856      0.870      1.315      1.351      1.461      1.653      3.479     29.332      0.119     90.742     14.949     44.402    100.000     16.130     11.313      0.386
   1499.100      6.000     88.751     32.564      0.000    101.319     96.016      3.269      0.002     61.608     21.472     21.472     21.472      0.870      1.312      1.349      1.462      1.651      3.449     30.215      0.114     91.320     16.523     44.570    100.000     17.093     11.274      0.373
