~Version Information
 VERS.                 2.0:   CWLS Log ASCII Standard - VERSION 2.0
 WRAP.                  NO:   One line per depth step
~Well Information Block
#MNEM.UNIT         DATA            DESCRIPTION OF MNEMONIC
#---------    -------------   -------------------------------
 STRT.M            1057.200:   START DEPTH
 STOP.M            2380.000:   STOP DEPTH
 STEP.M               0.100:   STEP DEPTH
 NULL.           -99999.000:   NULL VALUE
 COMP.                    :   COMPANY
 WELL.          Zakiganj-1:   Well
 FLD .                    :   FIELD
 LOC .                    :   Location
 CNTY.                    :   County
 STAT.                    :   State
 CTRY.                    :   Country
 SRVC.        CNPC Logging:   Service Company
 DATE.          21/04/2021:   Date
 API .                    :   API Number
~Curve Information Block
#MNEM.UNIT      API CODE             CURVE DESCRIPTION
#---------    -------------   ------------------------------
 DEPT.M                   :     DEPTH
 CAL.in                   :     Density caliper
 CGR .API                 :     Gamma ray minus uranium
 CNL .%                   :     Compensated neutron
 DEN .g/cm3               :     Bulk Density 
 AC .us/ft                :     Acoustic
 GR  .API                 :     Gamma Ray
 K   .%                   :     Potassium
 PE  .b/e                 :     Photoelectric factor
 PERM.mD                  :     Permeability
 POR .%                   :     Porosity
 PORF.%                   :     Porosity of water
 PORW.%                   :     Porosity of flush zone
 RAL1.ohmm                :     Array laterlog
 RAL2.ohmm                :     Array laterlog
 RAL3.ohmm                :     Array laterlog
 RAL4.ohmm                :     Array laterlog
 RAL5.ohmm                :     Array laterlog
 RTHK.none                :     Ratio of TH and K
 RTHU.none                :     Ratio of TH and U
 RUK .none                :     Ratio of U and K
 SGR .API                 :     Spectrum Gamma Ray
 SH  .%                   :     Shale content
 SP  .mV                  :     Spontaneous potential
 SW  .%                   :     Water saturation
 SWIR.%                   :     Irreducible water Saturation
 TH  .ppm                 :     Thorium
 U   .ppm                 :     Uranium
~A DEPT     CAL          CGR          CNL          DEN          AC           GR            K           PE         PERM          POR         PORF         PORW         RAL1         RAL2         RAL3     RAL4         RAL5         RTHK         RTHU          RUK          SGR           SH           SP           SW         SWIR           TH            U  
# ...
   1319.800      6.000     86.323     42.401      0.000    108.283    100.277      3.827      0.001     25.952     17.641     17.533     17.106      1.084      1.874      2.095      2.358      2.668      2.716     14.438      0.189     92.608     30.890     57.425     96.964     46.108     10.394      0.722
   1319.900      6.000     87.487     41.827      0.000    108.519     99.630      3.809      0.001     29.822     18.208     17.816     16.333      1.101      1.897      2.119      2.390      2.704      2.778     15.753      0.177     93.369     29.739     57.786     89.704     42.960     10.579      0.674
   1320.000      6.000     88.883     41.267      0.000    108.789     99.018      3.793      0.001     32.446     18.560     18.071     16.241      1.089      1.852      2.058      2.322      2.598      2.838     17.810      0.160     93.967     29.177     58.110     87.504     40.943     10.765      0.607
   1320.100      6.000     90.021     41.198      0.000    109.045     99.714      3.781      0.001     29.699     18.191     18.025     17.378      1.064      1.810      1.981      2.224      2.490      2.894     20.480      0.143     94.119     30.493     58.336     95.530     43.189     10.942      0.540
   1320.200      6.000     90.971     41.750      0.000    109.286    100.960      3.770      0.001     26.174     17.676     17.676     17.676      1.066      1.796      1.959      2.185      2.454      2.947     23.458      0.126     94.057     32.122     58.441    100.000     46.162     11.110      0.475
   1320.300      6.000     91.612     42.555      0.000    109.396    101.075      3.763      0.001     27.373     17.857     17.857     17.857      1.075      1.808      1.966      2.179      2.447      2.992     26.582      0.113     93.927     31.763     58.440    100.000     45.172     11.258      0.426
   1320.400      6.000     92.132     43.101      0.000    109.424     99.821      3.759      0.001     32.951     18.625     18.385     17.455      1.084      1.835      1.989      2.189      2.475      3.029     28.891      0.105     94.231     29.746     58.354     93.719     40.684     11.385      0.395
   1320.500      6.000     92.599     43.175      0.000    109.371     98.301      3.758      0.001     38.322     19.276     18.743     16.758      1.083      1.855      2.002      2.195      2.472      3.060     30.436      0.101     94.844     27.921     58.160     86.938     36.615     11.498      0.378
   1320.600      6.000     93.066     42.983      0.000    109.217     97.769      3.760      0.001     38.784     19.328     18.802     16.838      1.076      1.853      1.984      2.168      2.447      3.083     30.317      0.102     95.947     27.557     57.763     87.119     36.238     11.591      0.382
   1320.700      6.000     93.515     42.736      0.000    109.025     97.513      3.764      0.001     38.920     19.344     18.878     17.125      1.072      1.844      1.957      2.126      2.389      3.100     29.214      0.106     96.825     27.239     57.013     88.532     36.088     11.670      0.400
   1320.800      6.000     93.883     42.344      0.000    108.795     97.109      3.770      0.001     39.216     19.377     18.966     17.407      1.078      1.844      1.942      2.100      2.367      3.114     27.664      0.113     97.468     26.837     55.762     89.835     35.816     11.739      0.425
   1320.900      6.000     93.954     41.658      0.000    108.563     97.896      3.776      0.001     33.691     18.720     18.567     17.968      1.090      1.859      1.959      2.111      2.392      3.123     26.038      0.120     97.552     28.263     53.956     95.988     39.885     11.792      0.454
   1321.000      6.000     93.830     40.916      0.000    108.363     99.963      3.784      0.001     25.108     17.509     17.509     17.509      1.093      1.866      1.966      2.114      2.401      3.126     24.804      0.126     97.475     31.188     51.679    100.000     46.824     11.827      0.477
   1321.100      6.000     93.627     40.718      0.000    108.197    101.677      3.792      0.001     20.259     16.676     16.676     16.676      1.094      1.870      1.970      2.113      2.411      3.125     23.808      0.131     97.377     33.180     49.150    100.000     51.164     11.849      0.498
   1321.200      6.000     93.442     41.338      0.000    108.090    101.669      3.801      0.001     21.279     16.863     16.863     16.863      1.101      1.895      1.994      2.140      2.439      3.116     23.094      0.135     97.470     32.611     46.649    100.000     50.197     11.846      0.513
   1321.300      6.000     93.354     42.319      0.000    108.144    101.040      3.816      0.001     22.960     17.157     17.157     17.157      1.130      1.962      2.071      2.227      2.555      3.099     22.329      0.139     97.539     31.807     44.427    100.000     48.659     11.824      0.530
   1321.400      6.000     93.306     42.794      0.000    107.951    101.568      3.834      0.001     19.809     16.591     16.591     16.591      1.162      2.027      2.141      2.301      2.648      3.075     21.479      0.143     97.574     33.106     42.633    100.000     51.537     11.790      0.549
   1321.500      6.000     93.249     42.271      0.000    107.928    103.723      3.861      0.001     13.561     15.222     15.222     15.222      1.178      2.046      2.160      2.322      2.660      3.041     20.377      0.149     97.516     36.679     41.295    100.000     57.956     11.741      0.577
   1321.600      6.000     93.193     41.080      0.000    107.911    105.585      3.895      0.001     10.230     14.278     14.278     14.278      1.182      2.029      2.146      2.315      2.631      3.001     19.152      0.157     97.529     39.142     40.352    100.000     61.908     11.687      0.612
   1321.700      6.000     93.157     40.025      0.000    107.897    105.466      3.933      0.001     11.335     14.614     14.614     14.614      1.188      2.030      2.145      2.325      2.611      2.957     17.911      0.165     97.691     38.229     39.706    100.000     60.536     11.629      0.650
   1321.800      6.000     93.194     39.639      0.000    107.862    104.750      3.977      0.001     12.438     14.926     14.926     14.926      1.203      2.048      2.156      2.349      2.605      2.909     16.820      0.173     98.327     37.360     39.271    100.000     59.219     11.570      0.689
   1321.900      6.000     93.471     39.828      0.000    107.821    106.316      4.020      0.001      7.810     13.428     13.428     13.428      1.210      2.053      2.147      2.345      2.573      2.863     16.075      0.178     99.324     41.243     38.993    100.000     65.139     11.509      0.716
   1322.000      6.000     93.873     40.185      0.000    107.774    111.547      4.061      0.001      1.465      9.180      9.180      9.180      1.222      2.066      2.152      2.361      2.571      2.819     15.611      0.181    100.392     52.368     38.844    100.000     77.743     11.447      0.733
   1322.100      6.000     94.373     40.386      0.000    107.765    116.989      4.095      0.001      0.010      0.010      0.010      0.010      1.236      2.093      2.182      2.400      2.604      2.780     15.670      0.177    101.144     63.678     38.812    100.000    100.000     11.383      0.726
   1322.200      6.000     94.831     40.300      0.000    107.791    118.604      4.121      0.001      0.010      0.010      0.010      0.010      1.249      2.127      2.238      2.459      2.635      2.746     16.305      0.169    101.198     64.621     38.887    100.000    100.000     11.316      0.695
   1322.300      6.000     95.236     39.958      0.000    107.852    115.170      4.140      0.001      0.010      0.010      0.010      0.010      1.262      2.155      2.306      2.506      2.671      2.716     17.371      0.157    100.840     54.159     39.059    100.000    100.000     11.245      0.649
