~Version Information
 VERS.                 2.0:   CWLS Log ASCII Standard - VERSION 2.0
 WRAP.                  NO:   One line per depth step
~Well Information Block
#MNEM.UNIT         DATA            DESCRIPTION OF MNEMONIC
#---------    -------------   -------------------------------
 STRT.M            1057.200:   START DEPTH
 STOP.M            2380.000:   STOP DEPTH
 STEP.M               0.100:   STEP DEPTH
 NULL.           -99999.000:   NULL VALUE
 COMP.                    :   COMPANY
 WELL.          Zakiganj-1:   Well
 FLD .                    :   FIELD
 LOC .                    :   Location
 CNTY.                    :   County
 STAT.                    :   State
 CTRY.                    :   Country
 SRVC.        CNPC Logging:   Service Company
 DATE.          21/04/2021:   Date
 API .                    :   API Number
~Curve Information Block
#MNEM.UNIT      API CODE             CURVE DESCRIPTION
#---------    -------------   ------------------------------
 DEPT.M                   :     DEPTH
 CAL.in                   :     Density caliper
 CGR .API                 :     Gamma ray minus uranium
 CNL .%                   :     Compensated neutron
 DEN .g/cm3               :     Bulk Density 
 AC .us/ft                :     Acoustic
 GR  .API                 :     Gamma Ray
 K   .%                   :     Potassium
 PE  .b/e                 :     Photoelectric factor
 PERM.mD                  :     Permeability
 POR .%                   :     Porosity
 PORF.%                   :     Porosity of water
 PORW.%                   :     Porosity of flush zone
 RAL1.ohmm                :     Array laterlog
 RAL2.ohmm                :     Array laterlog
 RAL3.ohmm                :     Array laterlog
 RAL4.ohmm                :     Array laterlog
 RAL5.ohmm                :     Array laterlog
 RTHK.none                :     Ratio of TH and K
 RTHU.none                :     Ratio of TH and U
 RUK .none                :     Ratio of U and K
 SGR .API                 :     Spectrum Gamma Ray
 SH  .%                   :     Shale content
 SP  .mV                  :     Spontaneous potential
 SW  .%                   :     Water saturation
 SWIR.%                   :     Irreducible water Saturation
 TH  .ppm                 :     Thorium
 U   .ppm                 :     Uranium
~A DEPT     CAL          CGR          CNL          DEN          AC           GR            K           PE         PERM          POR         PORF         PORW         RAL1         RAL2         RAL3     RAL4         RAL5         RTHK         RTHU          RUK          SGR           SH           SP           SW         SWIR           TH            U  
# ...
   2287.000     13.409    120.240     29.465      2.485     79.341    133.581      4.126     19.414      0.010      0.010      0.010      0.010      1.990      4.966      6.224      6.838      7.049      3.717     34.633      0.108    123.470     76.878    -21.105    100.000    100.000     15.340      0.444
   2287.100     13.510    123.209     29.729      2.437     79.747    132.835      4.175     19.051      0.010      0.010      0.010      0.010      1.995      5.057      6.233      6.735      6.902      3.790     37.800      0.100    126.050     72.940    -19.966    100.000    100.000     15.823      0.419
   2287.200     13.676    123.928     30.434      2.323     79.928    130.147      4.195     19.344      0.010      0.010      0.010      0.010      2.019      5.174      6.288      6.706      6.826      3.836     39.581      0.097    126.611     64.687    -18.848    100.000    100.000     16.092      0.407
   2287.300     14.064    123.707     31.625      2.171     79.884    126.756      4.200     20.020      0.010      0.010      0.010      0.010      2.059      5.262      6.321      6.655      6.771      3.869     40.186      0.096    126.429     56.611    -17.766    100.000    100.000     16.248      0.404
   2287.400     14.682    122.754     33.305      2.023     79.569    124.135      4.193     20.959      0.010      0.010      0.010      0.010      2.102      5.301      6.277      6.525      6.668      3.891     39.875      0.098    125.666     51.355    -16.731    100.000    100.000     16.315      0.409
   2287.500     15.295    121.020     35.218      1.932     79.113    122.828      4.177     21.870      0.010      0.010      0.010      0.010      2.116      5.261      6.190      6.350      6.538      3.898     38.589      0.101    124.263     49.698    -15.753    100.000    100.000     16.283      0.422
   2287.600     15.518    119.302     36.739      1.937     78.516    123.533      4.165     22.459      0.010      0.010      0.010      0.010      2.094      5.203      6.143      6.260      6.467      3.897     37.511      0.104    122.857     52.199    -14.853    100.000    100.000     16.229      0.433
   2287.700     15.183    117.707     37.116      2.038     77.854    125.972      4.157     22.494      0.010      0.010      0.010      0.010      2.047      5.139      6.201      6.305      6.498      3.888     36.688      0.106    121.535     59.184    -14.065    100.000    100.000     16.160      0.440
   2287.800     14.428    117.211     36.081      2.193     77.201    130.153      4.165     22.082      0.010      0.010      0.010      0.010      2.008      5.144      6.384      6.520      6.697      3.861     36.980      0.104    121.076     69.829    -13.418    100.000    100.000     16.083      0.435
   2287.900     13.590    117.909     34.174      2.329     76.558    133.565      4.185     21.317      0.010      0.010      0.010      0.010      2.015      5.299      6.805      7.018      7.202      3.823     38.218      0.100    121.579     79.016    -12.925    100.000    100.000     15.998      0.419
   2288.000     13.007    119.480     32.377      2.404     75.971    135.561      4.215     20.578      0.010      0.010      0.010      0.010      2.057      5.536      7.330      7.627      7.829      3.774     40.253      0.094    122.781     84.625    -12.568    100.000    100.000     15.906      0.396
   2288.100     12.811    121.530     31.302      2.426     75.533    136.319      4.257     20.033      0.010      0.010      0.010      0.010      2.079      5.671      7.621      7.978      8.144      3.709     43.686      0.085    124.330     85.287    -12.302    100.000    100.000     15.786      0.363
   2288.200     12.893    123.173     30.762      2.430     75.246    135.215      4.299     19.642      0.010      0.010      0.010      0.010      2.083      5.697      7.691      8.070      8.186      3.638     47.360      0.077    125.511     81.957    -12.073    100.000    100.000     15.638      0.331
   2288.300     13.157    124.403     30.248      2.435     75.009    134.597      4.341     19.526      0.010      0.010      0.010      0.010      2.073      5.695      7.636      8.025      8.066      3.562     50.993      0.070    126.328     80.647    -11.835    100.000    100.000     15.464      0.303
   2288.400     13.562    124.337     29.627      2.420     74.792    134.429      4.372     20.012      0.010      0.010      0.010      0.010      2.083      5.714      7.585      7.951      7.977      3.487     52.632      0.066    126.063     77.931    -11.570    100.000    100.000     15.244      0.290
   2288.500     14.073    123.338     29.269      2.361     74.597    131.900      4.390     20.815      0.010      0.010      0.010      0.010      2.133      5.776      7.507      7.827      7.846      3.418     52.050      0.066    125.076     69.841    -11.286    100.000    100.000     15.005      0.288
   2288.600     14.610    121.620     29.515      2.273     74.475    128.861      4.398     21.805      0.010      0.010      0.010      0.010      2.168      5.774      7.362      7.653      7.669      3.355     49.763      0.067    123.538     61.843    -11.005    100.000    100.000     14.755      0.297
   2288.700     15.108    119.103     30.279      2.203     74.273    126.189      4.388     22.717      0.010      0.010      0.010      0.010      2.186      5.769      7.279      7.563      7.580      3.307     45.668      0.073    121.447     55.532    -10.756    100.000    100.000     14.512      0.319
   2288.800     15.477    116.823     31.194      2.181     73.993    124.056      4.371     23.469      0.010      0.010      0.010      0.010      2.157      5.714      7.216      7.516      7.548      3.271     41.771      0.079    119.572     51.719    -10.559    100.000    100.000     14.294      0.344
   2288.900     15.469    114.757     31.957      2.195     73.811    123.573      4.347     23.965      0.010      0.010      0.010      0.010      2.113      5.615      7.145      7.458      7.499      3.243     38.136      0.085    117.882     51.310    -10.422    100.000    100.000     14.099      0.370
   2289.000     14.967    113.208     32.423      2.234     73.716    124.022      4.321     23.908      0.010      0.010      0.010      0.010      2.059      5.468      7.014      7.338      7.390      3.231     35.685      0.091    116.549     51.922    -10.351    100.000    100.000     13.959      0.392
   2289.100     14.251    112.279     32.232      2.302     73.709    123.913      4.298     23.433      0.010      0.010      0.010      0.010      2.018      5.359      6.922      7.294      7.368      3.224     34.123      0.095    115.683     51.767    -10.347    100.000    100.000     13.857      0.406
   2289.200     13.768    111.806     30.887      2.393     73.830    123.799      4.279     22.897      0.010      0.010      0.010      0.010      1.991      5.334      6.973      7.405      7.533      3.222     33.299      0.097    115.170     50.803    -10.405    100.000    100.000     13.788      0.414
   2289.300     13.808    111.690     28.393      2.475     74.085    122.533      4.270     22.426      0.010      0.010      0.010      0.010      2.004      5.385      7.182      7.679      7.893      3.225     33.758      0.096    114.989     47.890    -10.519    100.000    100.000     13.771      0.408
   2289.400     14.265    111.927     25.727      2.498     74.476    121.036      4.267     22.080      0.010      0.010      0.010      0.010      2.018      5.350      7.178      7.678      7.954      3.230     35.095      0.092    115.133     45.624    -10.678    100.000    100.000     13.782      0.393
   2289.500     14.705    112.468     24.316      2.448     74.866    121.001      4.270     21.932      0.010      0.010      0.010      0.010      2.029      5.253      6.992      7.437      7.720      3.235     37.164      0.087    115.550     46.468    -10.868    100.000    100.000     13.813      0.372
