~Version Information
 VERS.                 2.0:   CWLS Log ASCII Standard - VERSION 2.0
 WRAP.                  NO:   One line per depth step
~Well Information Block
#MNEM.UNIT         DATA            DESCRIPTION OF MNEMONIC
#---------    -------------   -------------------------------
 STRT.M            1057.200:   START DEPTH
 STOP.M            2380.000:   STOP DEPTH
 STEP.M               0.100:   STEP DEPTH
 NULL.           -99999.000:   NULL VALUE
 COMP.                    :   COMPANY
 WELL.          Zakiganj-1:   Well
 FLD .                    :   FIELD
 LOC .                    :   Location
 CNTY.                    :   County
 STAT.                    :   State
 CTRY.                    :   Country
 SRVC.        CNPC Logging:   Service Company
 DATE.          21/04/2021:   Date
 API .                    :   API Number
~Curve Information Block
#MNEM.UNIT      API CODE             CURVE DESCRIPTION
#---------    -------------   ------------------------------
 DEPT.M                   :     DEPTH
 CAL.in                   :     Density caliper
 CGR .API                 :     Gamma ray minus uranium
 CNL .%                   :     Compensated neutron
 DEN .g/cm3               :     Bulk Density 
 AC .us/ft                :     Acoustic
 GR  .API                 :     Gamma Ray
 K   .%                   :     Potassium
 PE  .b/e                 :     Photoelectric factor
 PERM.mD                  :     Permeability
 POR .%                   :     Porosity
 PORF.%                   :     Porosity of water
 PORW.%                   :     Porosity of flush zone
 RAL1.ohmm                :     Array laterlog
 RAL2.ohmm                :     Array laterlog
 RAL3.ohmm                :     Array laterlog
 RAL4.ohmm                :     Array laterlog
 RAL5.ohmm                :     Array laterlog
 RTHK.none                :     Ratio of TH and K
 RTHU.none                :     Ratio of TH and U
 RUK .none                :     Ratio of U and K
 SGR .API                 :     Spectrum Gamma Ray
 SH  .%                   :     Shale content
 SP  .mV                  :     Spontaneous potential
 SW  .%                   :     Water saturation
 SWIR.%                   :     Irreducible water Saturation
 TH  .ppm                 :     Thorium
 U   .ppm                 :     Uranium
~A DEPT     CAL          CGR          CNL          DEN          AC           GR            K           PE         PERM          POR         PORF         PORW         RAL1         RAL2         RAL3     RAL4         RAL5         RTHK         RTHU          RUK          SGR           SH           SP           SW         SWIR           TH            U  
# ...
   2024.400     16.012    119.046     35.512      2.258     84.278    133.881      4.121     14.669      0.010      0.010      0.010      0.010      2.003      5.083      6.307      6.663      6.694      3.517     75.700      0.046    120.716     77.319     14.872    100.000    100.000     14.491      0.191
   2024.500     15.791    119.110     35.315      2.283     84.213    132.785      4.108     13.910      0.010      0.010      0.010      0.010      2.010      5.084      6.330      6.684      6.723      3.541     79.357      0.045    120.643     74.004     14.887    100.000    100.000     14.548      0.184
   2024.600     15.576    119.192     35.008      2.313     84.190    131.662      4.103     13.321      0.010      0.010      0.010      0.010      2.010      5.073      6.340      6.697      6.711      3.561     83.599      0.043    120.525     70.491     14.879    100.000    100.000     14.609      0.175
   2024.700     15.498    119.340     34.931      2.318     84.200    130.441      4.106     12.869      0.010      0.010      0.010      0.010      2.012      5.078      6.368      6.731      6.704      3.574     88.624      0.040    120.408     67.231     14.852    100.000    100.000     14.675      0.166
   2024.800     15.548    119.944     35.355      2.294     84.243    129.170      4.118     12.510      0.010      0.010      0.010      0.010      2.011      5.088      6.388      6.758      6.731      3.578     93.312      0.038    120.903     63.268     14.809    100.000    100.000     14.731      0.158
   2024.900     15.626    120.642     36.074      2.257     84.249    127.725      4.133     12.242      0.010      0.010      0.010      0.010      2.009      5.104      6.416      6.789      6.789      3.575     96.783      0.037    121.571     60.358     14.754    100.000    100.000     14.773      0.153
   2025.000     15.721    121.407     36.575      2.228     84.254    127.335      4.152     12.041      0.010      0.010      0.010      0.010      2.010      5.130      6.468      6.846      6.893      3.563     98.463      0.036    122.392     59.861     14.690    100.000    100.000     14.797      0.150
   2025.100     15.883    121.948     36.544      2.217     84.258    127.922      4.175     11.857      0.010      0.010      0.010      0.010      2.007      5.144      6.501      6.884      6.948      3.540     97.500      0.036    123.057     62.389     14.624    100.000    100.000     14.779      0.152
   2025.200     16.097    122.278     36.137      2.225     84.272    129.501      4.198     11.737      0.010      0.010      0.010      0.010      2.008      5.143      6.482      6.863      6.920      3.510     96.339      0.036    123.501     66.389     14.562    100.000    100.000     14.735      0.153
   2025.300     16.344    122.327     35.793      2.247     84.283    130.842      4.220     11.799      0.010      0.010      0.010      0.010      2.011      5.122      6.419      6.768      6.849      3.474     95.335      0.036    123.638     70.066     14.510    100.000    100.000     14.660      0.154
   2025.400     16.530    121.975     35.770      2.272     84.291    131.491      4.238     11.974      0.010      0.010      0.010      0.010      2.019      5.122      6.382      6.693      6.820      3.434     97.135      0.035    123.260     70.394     14.470    100.000    100.000     14.550      0.150
   2025.500     16.549    121.471     35.946      2.293     84.375    130.691      4.252     12.187      0.010      0.010      0.010      0.010      2.026      5.136      6.383      6.661      6.839      3.395    101.135      0.034    122.668     68.066     14.443    100.000    100.000     14.434      0.143
   2025.600     16.421    120.804     36.014      2.312     84.451    129.801      4.261     12.421      0.010      0.010      0.010      0.010      2.034      5.147      6.381      6.635      6.843      3.359    107.967      0.031    121.843     65.523     14.429    100.000    100.000     14.312      0.133
   2025.700     16.291    120.241     35.881      2.325     84.518    128.936      4.265     12.555      0.010      0.010      0.010      0.010      2.036      5.143      6.365      6.600      6.805      3.332    119.748      0.028    121.109     63.478     14.431    100.000    100.000     14.210      0.119
   2025.800     16.313    119.795     35.807      2.318     84.529    128.476      4.267     12.642      0.010      0.010      0.010      0.010      2.047      5.155      6.359      6.579      6.767      3.311    133.811      0.025    120.503     62.600     14.454    100.000    100.000     14.128      0.106
   2025.900     16.435    119.510     36.194      2.285     84.529    128.590      4.267     12.756      0.010      0.010      0.010      0.010      2.053      5.174      6.379      6.578      6.774      3.298    150.453      0.022    120.073     63.453     14.498    100.000    100.000     14.072      0.094
   2026.000     16.444    119.445     37.177      2.236     84.519    129.390      4.266     12.858      0.010      0.010      0.010      0.010      2.054      5.207      6.432      6.612      6.849      3.296    166.824      0.020    119.960     65.869     14.556    100.000    100.000     14.060      0.085
   2026.100     16.172    119.475     38.386      2.196     84.400    130.419      4.266     12.828      0.010      0.010      0.010      0.010      2.045      5.250      6.483      6.648      6.946      3.298    180.250      0.018    119.976     68.602     14.616    100.000    100.000     14.066      0.078
   2026.200     15.700    119.610     39.202      2.188     84.292    131.217      4.266     12.621      0.010      0.010      0.010      0.010      2.054      5.309      6.532      6.688      7.019      3.304    189.339      0.017    120.129     70.588     14.662    100.000    100.000     14.093      0.074
   2026.300     15.318    119.935     39.242      2.221     84.193    131.217      4.265     12.375      0.010      0.010      0.010      0.010      2.073      5.338      6.511      6.666      7.001      3.313    185.656      0.018    120.482     69.280     14.683    100.000    100.000     14.130      0.076
   2026.400     15.172    120.286     38.643      2.276     84.138    130.191      4.263     12.167      0.010      0.010      0.010      0.010      2.099      5.365      6.481      6.630      6.968      3.323    176.441      0.019    120.844     66.874     14.670    100.000    100.000     14.163      0.081
   2026.500     15.220    120.645     37.922      2.327     84.108    129.676      4.258     12.001      0.010      0.010      0.010      0.010      2.130      5.379      6.465      6.604      6.950      3.332    161.084      0.021    121.187     65.622     14.622    100.000    100.000     14.191      0.088
   2026.600     15.377    120.358     37.570      2.355     84.103    129.353      4.249     11.852      0.010      0.010      0.010      0.010      2.158      5.397      6.446      6.571      6.934      3.343    145.025      0.023    120.987     64.846     14.543    100.000    100.000     14.202      0.099
   2026.700     15.550    119.708     37.765      2.354     84.157    128.639      4.236     11.789      0.010      0.010      0.010      0.010      2.182      5.390      6.408      6.523      6.887      3.353    130.258      0.026    120.477     61.855     14.440    100.000    100.000     14.204      0.110
   2026.800     15.680    118.625     38.359      2.332     84.191    126.928      4.220     11.918      0.010      0.010      0.010      0.010      2.190      5.371      6.358      6.474      6.826      3.364    117.501      0.029    119.594     57.881     14.319    100.000    100.000     14.196      0.121
   2026.900     15.628    117.542     38.982      2.314     84.204    125.425      4.201     12.105      0.010      0.010      0.010      0.010      2.189      5.365      6.345      6.480      6.795      3.376    106.909      0.032    118.669     54.110     14.188    100.000    100.000     14.183      0.133
